[
  {
    "id": 348335854,
    "key": "04002",
    "name": "仙台青葉通り店",
    "latitude": 38.25944317414355,
    "longitude": 140.87225114597322,
    "address": "宮城県仙台市青葉区一番町２－５－１"
  },
  {
    "id": 348335857,
    "key": "04005",
    "name": "仙台中央通り店",
    "latitude": 38.261287273627296,
    "longitude": 140.87724701505127,
    "address": "宮城県仙台市青葉区中央２－２－２９"
  },
  {
    "id": 348335859,
    "key": "04007",
    "name": "４号線名取店",
    "latitude": 38.156201100309026,
    "longitude": 140.88756604692688,
    "address": "宮城県名取市飯野坂土城掘８２－１"
  },
  {
    "id": 348335864,
    "key": "04012",
    "name": "４号線白石店",
    "latitude": 37.99727535007861,
    "longitude": 140.61248808276105,
    "address": "宮城県白石市八幡町４６９"
  },
  {
    "id": 348335866,
    "key": "04014",
    "name": "大河原店",
    "latitude": 38.06144128442728,
    "longitude": 140.7375090079045,
    "address": "宮城県柴田郡大河原町字新東２７－１４"
  },
  {
    "id": 348335872,
    "key": "04506",
    "name": "中田ヤマザワ店",
    "latitude": 38.19676504812351,
    "longitude": 140.89775409925392,
    "address": "宮城県仙台市太白区中田町字千刈田１９－１"
  },
  {
    "id": 348335880,
    "key": "04514",
    "name": "ザ・モール仙台長町店",
    "latitude": 38.22601327184142,
    "longitude": 140.87649512520744,
    "address": "宮城県仙台市太白区長町７－２０－３"
  },
  {
    "id": 348335886,
    "key": "04520",
    "name": "仙台駅東口店",
    "latitude": 38.26079807220993,
    "longitude": 140.88363009574311,
    "address": "宮城県仙台市宮城野区榴岡２－１－２５Ｂｉｖｉ仙台駅東口１Ｆ"
  },
  {
    "id": 348335889,
    "key": "04523",
    "name": "ザ・ビッグ柴田店",
    "latitude": 38.06244811059962,
    "longitude": 140.7948981589485,
    "address": "宮城県柴田郡柴田町中名生字佐野３４－１"
  },
  {
    "id": 348335892,
    "key": "04526",
    "name": "亘理コープ店",
    "latitude": 38.042575293768024,
    "longitude": 140.87723196039767,
    "address": "宮城県亘理郡亘理町逢隈高屋字柴北１００"
  },
  {
    "id": 348335897,
    "key": "04531",
    "name": "仙台一番町四丁目店",
    "latitude": 38.26391011301926,
    "longitude": 140.87071523593846,
    "address": "宮城県仙台市青葉区一番町４－４－３３－２Ｆ"
  },
  {
    "id": 348335899,
    "key": "04533",
    "name": "仙台大野田店",
    "latitude": 38.21353725481678,
    "longitude": 140.87792919710193,
    "address": "宮城県仙台市太白区大野田２－７－２９"
  },
  {
    "id": 348335901,
    "key": "04535",
    "name": "岩沼西ヨークベニマル店",
    "latitude": 38.107732188289646,
    "longitude": 140.85688096559403,
    "address": "宮城県岩沼市たけくま２－３－６７"
  },
  {
    "id": 348335905,
    "key": "04539",
    "name": "山田鈎取ヨークタウン店",
    "latitude": 38.21636211639915,
    "longitude": 140.83675707751075,
    "address": "宮城県仙台市太白区山田字田中前１８０"
  },
  {
    "id": 348335910,
    "key": "04544",
    "name": "イオンモール名取店",
    "latitude": 38.164144047075204,
    "longitude": 140.89622214829646,
    "address": "宮城県名取市杜せきのした５丁目３番地の１"
  },
  {
    "id": 348335912,
    "key": "04546",
    "name": "仙台六丁の目店",
    "latitude": 38.25048710966007,
    "longitude": 140.9334770939286,
    "address": "宮城県仙台市若林区六丁の目元町１６－１"
  },
  {
    "id": 348335913,
    "key": "04547",
    "name": "仙台長町店",
    "latitude": 38.22582918049525,
    "longitude": 140.88786109336107,
    "address": "宮城県仙台市太白区あすと長町４－２－１"
  },
  {
    "id": 348335915,
    "key": "04549",
    "name": "４号線岩沼店",
    "latitude": 38.12232017334589,
    "longitude": 140.87410518352894,
    "address": "宮城県名取市堀内字北竹８５－５"
  },
  {
    "id": 348335917,
    "key": "04551",
    "name": "仙台沖野店",
    "latitude": 38.231634102237344,
    "longitude": 140.90813823068245,
    "address": "宮城県仙台市若林区沖野２－５－８０"
  },
  {
    "id": 348335920,
    "key": "04554",
    "name": "４８号愛子ヨークタウン店",
    "latitude": 38.26775118251754,
    "longitude": 140.7607240443465,
    "address": "宮城県仙台市青葉区上愛子字新宮前２０－１"
  },
  {
    "id": 348335921,
    "key": "04555",
    "name": "２８６西多賀店",
    "latitude": 38.22037017402085,
    "longitude": 140.85270606272707,
    "address": "宮城県仙台市太白区西多賀５－１６－８"
  },
  {
    "id": 348335923,
    "key": "04557",
    "name": "広瀬通駅前店",
    "latitude": 38.26316723127695,
    "longitude": 140.8737261208813,
    "address": "宮城県仙台市青葉区本町２－３－１０"
  },
  {
    "id": 348335925,
    "key": "04560",
    "name": "角田ヤマザワ店",
    "latitude": 37.97495210620868,
    "longitude": 140.7955910417239,
    "address": "宮城県角田市角田中島下５５９－１"
  },
  {
    "id": 348335927,
    "key": "04562",
    "name": "仙台白萩店",
    "latitude": 38.24974401295665,
    "longitude": 140.910134151373,
    "address": "宮城県仙台市若林区白萩町３７－１０"
  },
  {
    "id": 348335955,
    "key": "06001",
    "name": "山形やよい町店",
    "latitude": 38.253923339177646,
    "longitude": 140.30992421190155,
    "address": "山形県山形市やよい１－１－１"
  },
  {
    "id": 348335956,
    "key": "06002",
    "name": "米沢店",
    "latitude": 37.9239182164018,
    "longitude": 140.11618732998213,
    "address": "山形県米沢市金池５－７－１０"
  },
  {
    "id": 348335974,
    "key": "06514",
    "name": "米沢ヨークベニマル店",
    "latitude": 37.91244618945278,
    "longitude": 140.12527233644144,
    "address": "山形県米沢市駅前３－１－８８"
  },
  {
    "id": 348335975,
    "key": "06515",
    "name": "イオンモール山形南店",
    "latitude": 38.22727018758001,
    "longitude": 140.30541833820857,
    "address": "山形県山形市若宮３－７－８"
  },
  {
    "id": 348335977,
    "key": "06517",
    "name": "成沢ヨークベニマル店",
    "latitude": 38.20935009445689,
    "longitude": 140.31690621979072,
    "address": "山形県山形市成沢西１－６－１７"
  },
  {
    "id": 348335981,
    "key": "06521",
    "name": "２８６山形鉄砲町店",
    "latitude": 38.23479732761253,
    "longitude": 140.33286920617758,
    "address": "山形県山形市鉄砲町２－２０－３１"
  },
  {
    "id": 348335985,
    "key": "06525",
    "name": "上山ヨークタウン店",
    "latitude": 38.15113713341819,
    "longitude": 140.28856332055122,
    "address": "山形県上山市仙石字梅ノ木７８０－１"
  },
  {
    "id": 348335988,
    "key": "06528",
    "name": "南陽ヤマザワ店",
    "latitude": 38.04372219888184,
    "longitude": 140.15730218800837,
    "address": "山形県南陽市郡山５７８"
  },
  {
    "id": 348335994,
    "key": "07003",
    "name": "郡山並木店",
    "latitude": 37.40852436618261,
    "longitude": 140.3660202022644,
    "address": "福島県郡山市並木１－５－１９"
  },
  {
    "id": 348335997,
    "key": "07006",
    "name": "いわき湯本店",
    "latitude": 36.98729424122291,
    "longitude": 140.8691668269594,
    "address": "福島県いわき市常磐下船尾町古内２８９－７"
  },
  {
    "id": 348335998,
    "key": "07007",
    "name": "１１５方木田店",
    "latitude": 37.73990831789536,
    "longitude": 140.44713999120913,
    "address": "福島県福島市方木田字水口１－４１"
  },
  {
    "id": 348336003,
    "key": "07506",
    "name": "福島駅西口ショッピングセンター店",
    "latitude": 37.75381538213636,
    "longitude": 140.45875418932002,
    "address": "福島県福島市栄町１－１"
  },
  {
    "id": 348336006,
    "key": "07509",
    "name": "会津若松店",
    "latitude": 37.50515351751938,
    "longitude": 139.94111406560523,
    "address": "福島県会津若松市滝沢町６－２５"
  },
  {
    "id": 348336008,
    "key": "07511",
    "name": "いずみコープ店",
    "latitude": 37.77203529662955,
    "longitude": 140.44169206222483,
    "address": "福島県福島市森合字清水７"
  },
  {
    "id": 348336011,
    "key": "07514",
    "name": "イオン福島店",
    "latitude": 37.788099195584145,
    "longitude": 140.45817212858216,
    "address": "福島県福島市南矢野目字西荒田５０－１７"
  },
  {
    "id": 348336013,
    "key": "07516",
    "name": "イオンタウン郡山店",
    "latitude": 37.3891844134953,
    "longitude": 140.38748615571885,
    "address": "福島県郡山市松木町２－８８"
  },
  {
    "id": 348336014,
    "key": "07517",
    "name": "あだたらコープ店",
    "latitude": 37.60422928877813,
    "longitude": 140.45998417278895,
    "address": "福島県二本松市油井字中田１－１"
  },
  {
    "id": 348336015,
    "key": "07518",
    "name": "荒井ヨークベニマル店",
    "latitude": 37.368663391672975,
    "longitude": 140.3565611213346,
    "address": "福島県郡山市安積町荒井字西原１"
  },
  {
    "id": 348336016,
    "key": "07519",
    "name": "会津アピオ店",
    "latitude": 37.52022137060216,
    "longitude": 139.91650109177186,
    "address": "福島県会津若松市インター西１１６"
  },
  {
    "id": 348336017,
    "key": "07520",
    "name": "伊達ヨークベニマル店",
    "latitude": 37.820828199661385,
    "longitude": 140.50654311917435,
    "address": "福島県伊達市前川原５５"
  },
  {
    "id": 348336018,
    "key": "07521",
    "name": "郡山富田カインズホーム店",
    "latitude": 37.42308747039422,
    "longitude": 140.36787217261713,
    "address": "福島県郡山市富田東４－２０"
  },
  {
    "id": 348336019,
    "key": "07522",
    "name": "郡山新さくら通り店",
    "latitude": 37.3994222715761,
    "longitude": 140.33361395714815,
    "address": "福島県郡山市土瓜１－５７"
  },
  {
    "id": 348336020,
    "key": "07523",
    "name": "イオン白河西郷店",
    "latitude": 37.12117948314289,
    "longitude": 140.17770019399538,
    "address": "福島県西白河郡西郷村大字小田倉字岩下１１－１"
  },
  {
    "id": 348336024,
    "key": "07527",
    "name": "ザ・モール郡山店",
    "latitude": 37.398352317436306,
    "longitude": 140.37019196135896,
    "address": "福島県郡山市長者１－１－５６"
  },
  {
    "id": 348336026,
    "key": "07529",
    "name": "門田ヨークベニマル店",
    "latitude": 37.48000649963946,
    "longitude": 139.93434715188027,
    "address": "福島県会津若松市天神町２２－１２"
  },
  {
    "id": 348336031,
    "key": "07534",
    "name": "郡山駅西口店",
    "latitude": 37.39724545018589,
    "longitude": 140.38806908049435,
    "address": "福島県郡山市字燧田１９５"
  },
  {
    "id": 348336032,
    "key": "07535",
    "name": "イオンタウン須賀川店",
    "latitude": 37.298656405146716,
    "longitude": 140.38577615037798,
    "address": "福島県須賀川市字古河１０５"
  },
  {
    "id": 348336033,
    "key": "07536",
    "name": "会津若松Ｍ．ドン・キホーテＵＮＹ店",
    "latitude": 37.48390132598474,
    "longitude": 139.90448318257447,
    "address": "福島県会津若松市幕内南町９－１０"
  },
  {
    "id": 348336034,
    "key": "07537",
    "name": "いわき小名浜店",
    "latitude": 36.96014830745481,
    "longitude": 140.90364980779222,
    "address": "福島県いわき市小名浜岡小名１９－２"
  },
  {
    "id": 348336035,
    "key": "07538",
    "name": "郡山駅東ショッピングセンター店",
    "latitude": 37.40144435325716,
    "longitude": 140.39576600809363,
    "address": "福島県郡山市向河原町４－６１"
  },
  {
    "id": 348336036,
    "key": "07539",
    "name": "４号線須賀川店",
    "latitude": 37.31128328989791,
    "longitude": 140.36601618208826,
    "address": "福島県須賀川市大字森宿字ヒジリ田１３－１"
  },
  {
    "id": 348336037,
    "key": "07540",
    "name": "４号線南福島店",
    "latitude": 37.726430419694,
    "longitude": 140.466413100783,
    "address": "福島県福島市黒岩字堂ノ後４９－１"
  },
  {
    "id": 348336038,
    "key": "07541",
    "name": "６号線相馬塚ノ町店",
    "latitude": 37.80078015680848,
    "longitude": 140.92834289672143,
    "address": "福島県相馬市中村字砂子田１３５－１"
  },
  {
    "id": 348336039,
    "key": "07542",
    "name": "郡山安積店",
    "latitude": 37.365940455948724,
    "longitude": 140.36941318995963,
    "address": "福島県郡山市安積町荒井字戸蘭塔１－７"
  },
  {
    "id": 348336040,
    "key": "07543",
    "name": "いわき植田店",
    "latitude": 36.92208347689763,
    "longitude": 140.78628481658973,
    "address": "福島県いわき市植田町根小屋１１－２"
  },
  {
    "id": 348336042,
    "key": "07545",
    "name": "２８９新白河店",
    "latitude": 37.1225753573374,
    "longitude": 140.19479699454956,
    "address": "福島県白河市新白河２－１２１"
  },
  {
    "id": 348336043,
    "key": "07546",
    "name": "喜多方店",
    "latitude": 37.647647327927494,
    "longitude": 139.87997612063677,
    "address": "福島県喜多方市江中子４１８１－１"
  },
  {
    "id": 348336044,
    "key": "07547",
    "name": "４号線福島入江町店",
    "latitude": 37.76920925697497,
    "longitude": 140.48138403266196,
    "address": "福島県福島市入江町１５－１"
  },
  {
    "id": 348336045,
    "key": "07548",
    "name": "いわき鹿島店",
    "latitude": 36.999670379409864,
    "longitude": 140.90990975260527,
    "address": "福島県いわき市鹿島町走熊字四反田７－１"
  },
  {
    "id": 348336046,
    "key": "07549",
    "name": "イオンモールいわき小名浜店",
    "latitude": 36.946779508305994,
    "longitude": 140.90219496527348,
    "address": "福島県いわき市小名浜字辰巳町７９番地３Ｆ"
  },
  {
    "id": 348336047,
    "key": "07550",
    "name": "いわき平店",
    "latitude": 37.0532722802088,
    "longitude": 140.88843893494598,
    "address": "福島県いわき市平中町３－１"
  },
  {
    "id": 348336048,
    "key": "07551",
    "name": "４号線本宮店",
    "latitude": 37.5131762525242,
    "longitude": 140.3956760325455,
    "address": "福島県本宮市万世１５５－１"
  },
  {
    "id": 348336062,
    "key": "08012",
    "name": "真鍋新町店",
    "latitude": 36.08944173431136,
    "longitude": 140.20767374143787,
    "address": "茨城県土浦市真鍋新町２０－３６"
  },
  {
    "id": 348336064,
    "key": "08014",
    "name": "つくば学園店",
    "latitude": 36.076377592889166,
    "longitude": 140.1036339564786,
    "address": "茨城県つくば市小野崎字千駄苅２９３－１"
  },
  {
    "id": 348336065,
    "key": "08016",
    "name": "牛久店",
    "latitude": 35.991949641469155,
    "longitude": 140.14516391316087,
    "address": "茨城県牛久市猪子町８０６－１"
  },
  {
    "id": 348336066,
    "key": "08017",
    "name": "古河店",
    "latitude": 36.20486377437752,
    "longitude": 139.74144287005234,
    "address": "茨城県古河市大字西牛ケ谷２６０"
  },
  {
    "id": 348336067,
    "key": "08018",
    "name": "日立金沢店",
    "latitude": 36.540411341539205,
    "longitude": 140.6217889828994,
    "address": "茨城県日立市金沢町４－１－１６"
  },
  {
    "id": 348336069,
    "key": "08020",
    "name": "那珂町店",
    "latitude": 36.44816345146491,
    "longitude": 140.50192977857517,
    "address": "茨城県那珂市竹ノ内３－６－５"
  },
  {
    "id": 348336075,
    "key": "08026",
    "name": "守谷ジョイフル本田店",
    "latitude": 35.93850472918798,
    "longitude": 139.9877119817866,
    "address": "茨城県守谷市松ヶ丘３－８"
  },
  {
    "id": 348336076,
    "key": "08027",
    "name": "５０号下館店",
    "latitude": 36.295160607794585,
    "longitude": 139.9403029679788,
    "address": "茨城県筑西市玉戸１０１８"
  },
  {
    "id": 348336077,
    "key": "08028",
    "name": "５０号水戸赤塚店",
    "latitude": 36.38695940204592,
    "longitude": 140.41653991425457,
    "address": "茨城県水戸市赤塚２－２００５－１０"
  },
  {
    "id": 348336081,
    "key": "08033",
    "name": "水海道バイパス店",
    "latitude": 36.01824650866475,
    "longitude": 139.99598189655123,
    "address": "茨城県常総市水海道渕頭町４５６６"
  },
  {
    "id": 348336082,
    "key": "08034",
    "name": "５１号潮来店",
    "latitude": 35.95099857368523,
    "longitude": 140.5671248872821,
    "address": "茨城県潮来市須賀２８３７－１"
  },
  {
    "id": 348336083,
    "key": "08035",
    "name": "５０号岩瀬店",
    "latitude": 36.36504554284815,
    "longitude": 140.10570481642517,
    "address": "茨城県桜川市御領１－６５"
  },
  {
    "id": 348336089,
    "key": "08507",
    "name": "イオン東海店",
    "latitude": 36.463641560489116,
    "longitude": 140.56689193093902,
    "address": "茨城県那珂郡東海村舟石川駅東４－１－１"
  },
  {
    "id": 348336102,
    "key": "08520",
    "name": "那珂町ＤＣＭ店",
    "latitude": 36.42836939102132,
    "longitude": 140.51509200152364,
    "address": "茨城県那珂市菅谷１６１４"
  },
  {
    "id": 348336107,
    "key": "08526",
    "name": "５１号大洗インター店",
    "latitude": 36.33312040464912,
    "longitude": 140.55380081202182,
    "address": "茨城県水戸市塩崎町８７６－１"
  },
  {
    "id": 348336108,
    "key": "08527",
    "name": "ひたちなか昭和通り店",
    "latitude": 36.395484564386734,
    "longitude": 140.5373887267936,
    "address": "茨城県ひたちなか市東石川字宮下１０１５－１"
  },
  {
    "id": 348336110,
    "key": "08529",
    "name": "牛久カスミ店",
    "latitude": 35.96865550074658,
    "longitude": 140.1516637654666,
    "address": "茨城県牛久市神谷６－１－３"
  },
  {
    "id": 348336118,
    "key": "08537",
    "name": "５０号笠間店",
    "latitude": 36.39362351023061,
    "longitude": 140.25060986943592,
    "address": "茨城県笠間市赤坂４－４"
  },
  {
    "id": 348336121,
    "key": "08540",
    "name": "竜ヶ崎ニュータウン店",
    "latitude": 35.93100872488393,
    "longitude": 140.17546496221271,
    "address": "茨城県龍ケ崎市中根台４－９－２"
  },
  {
    "id": 348336122,
    "key": "08541",
    "name": "土浦田中店",
    "latitude": 36.08435571896632,
    "longitude": 140.19016182859772,
    "address": "茨城県土浦市田中１－１３１２"
  },
  {
    "id": 348336129,
    "key": "08549",
    "name": "６号線千代田町店",
    "latitude": 36.13139749494931,
    "longitude": 140.22588600752786,
    "address": "茨城県かすみがうら市上稲吉１９４３－１４"
  },
  {
    "id": 348336130,
    "key": "08550",
    "name": "４０８つくば大曽根店",
    "latitude": 36.13790950291806,
    "longitude": 140.08228378130073,
    "address": "茨城県つくば市筑穂１－１－２"
  },
  {
    "id": 348336136,
    "key": "08556",
    "name": "５０号結城バイパス店",
    "latitude": 36.28688769171868,
    "longitude": 139.87020402394714,
    "address": "茨城県結城市下り松６－１－２"
  },
  {
    "id": 348336140,
    "key": "08560",
    "name": "北竜台サプラ店",
    "latitude": 35.932398724189234,
    "longitude": 140.16077087334784,
    "address": "茨城県龍ケ崎市小柴５－１"
  },
  {
    "id": 348336144,
    "key": "08564",
    "name": "高萩モールベイシア店",
    "latitude": 36.72849542417266,
    "longitude": 140.7157017735825,
    "address": "茨城県高萩市下手綱１０６９"
  },
  {
    "id": 348336148,
    "key": "08568",
    "name": "１２５三和店",
    "latitude": 36.20114057770739,
    "longitude": 139.81293302374573,
    "address": "茨城県古河市諸川１２４１－１"
  },
  {
    "id": 348336150,
    "key": "08570",
    "name": "１２５阿見店",
    "latitude": 36.041292497037745,
    "longitude": 140.20954585507073,
    "address": "茨城県稲敷郡阿見町中郷２－３０－３"
  },
  {
    "id": 348336156,
    "key": "08576",
    "name": "１１８水戸中河内店",
    "latitude": 36.40521856686637,
    "longitude": 140.46101480347008,
    "address": "茨城県水戸市中河内町２６２３－２"
  },
  {
    "id": 348336157,
    "key": "08577",
    "name": "６号線水戸住吉店",
    "latitude": 36.33581152058878,
    "longitude": 140.47471574476126,
    "address": "茨城県水戸市住吉町９６－１"
  },
  {
    "id": 348336158,
    "key": "08578",
    "name": "西代パルナ店",
    "latitude": 35.91823452839134,
    "longitude": 140.48792376846396,
    "address": "茨城県稲敷市西代１４９５"
  },
  {
    "id": 348336159,
    "key": "08579",
    "name": "２９４新守谷店",
    "latitude": 35.9656635378938,
    "longitude": 139.98507692666948,
    "address": "茨城県守谷市御所ケ丘１－２－２"
  },
  {
    "id": 348336160,
    "key": "08580",
    "name": "２４５ひたちなか店",
    "latitude": 36.401354552824046,
    "longitude": 140.5808758958897,
    "address": "茨城県ひたちなか市馬渡字砂久保５４７－１"
  },
  {
    "id": 348336163,
    "key": "08583",
    "name": "５０号水戸大塚店",
    "latitude": 36.38621856237955,
    "longitude": 140.393193875711,
    "address": "茨城県水戸市大塚町１５３９－１"
  },
  {
    "id": 348336164,
    "key": "08584",
    "name": "総和とりせん店",
    "latitude": 36.16741374754297,
    "longitude": 139.76838405388415,
    "address": "茨城県古河市下大野２００８－１"
  },
  {
    "id": 348336166,
    "key": "08586",
    "name": "２９４石下店",
    "latitude": 36.109339755542706,
    "longitude": 139.983127016328,
    "address": "茨城県常総市大字新石下１６０３－１"
  },
  {
    "id": 348336167,
    "key": "08587",
    "name": "佐貫駅前店",
    "latitude": 35.93003671867961,
    "longitude": 140.13851285828892,
    "address": "茨城県龍ケ崎市佐貫町６４６"
  },
  {
    "id": 348336171,
    "key": "08591",
    "name": "岩井店",
    "latitude": 36.05072661729085,
    "longitude": 139.88940991292827,
    "address": "茨城県坂東市岩井３４５２－１"
  },
  {
    "id": 348336173,
    "key": "08593",
    "name": "６号線大津店",
    "latitude": 36.838055455625266,
    "longitude": 140.78373093487806,
    "address": "茨城県北茨城市大津町２６８５－１"
  },
  {
    "id": 348336176,
    "key": "08596",
    "name": "２９４下館一本松店",
    "latitude": 36.295349734816085,
    "longitude": 139.97018290823905,
    "address": "茨城県筑西市一本松１５３３－１"
  },
  {
    "id": 348336177,
    "key": "08597",
    "name": "１２４波崎店",
    "latitude": 35.74886772454029,
    "longitude": 140.82241067426054,
    "address": "茨城県神栖市波崎８５１５－１"
  },
  {
    "id": 348336178,
    "key": "08598",
    "name": "江戸崎パンプ店",
    "latitude": 35.95923854607671,
    "longitude": 140.31613882262877,
    "address": "茨城県稲敷市江戸崎甲４８３６"
  },
  {
    "id": 348336179,
    "key": "08599",
    "name": "土浦天川店",
    "latitude": 36.06569956549648,
    "longitude": 140.18269490231233,
    "address": "茨城県土浦市中高津３－５－９"
  },
  {
    "id": 348336180,
    "key": "08600",
    "name": "６号線藤代店",
    "latitude": 35.91943876844233,
    "longitude": 140.10864082760523,
    "address": "茨城県取手市谷中２０８－１"
  },
  {
    "id": 348336183,
    "key": "08603",
    "name": "日立小木津店",
    "latitude": 36.63022651499413,
    "longitude": 140.68402177446202,
    "address": "茨城県日立市相田町１－８－５"
  },
  {
    "id": 348336184,
    "key": "08604",
    "name": "日立豊浦カスミ店",
    "latitude": 36.665778517661444,
    "longitude": 140.69117796437897,
    "address": "茨城県日立市川尻町５－３－１７"
  },
  {
    "id": 348336186,
    "key": "08606",
    "name": "日立カインズホーム店",
    "latitude": 36.49151944266341,
    "longitude": 140.60417396169294,
    "address": "茨城県日立市留町字前川１２７０－２カインズホーム日立店内"
  },
  {
    "id": 348336191,
    "key": "08611",
    "name": "千代田モールヨークベニマル店",
    "latitude": 36.1264537295901,
    "longitude": 140.230298893767,
    "address": "茨城県かすみがうら市下稲吉逆西２６３３－７"
  },
  {
    "id": 348336192,
    "key": "08612",
    "name": "坂東ヨークタウン店",
    "latitude": 36.03835556387882,
    "longitude": 139.8911938798167,
    "address": "茨城県坂東市辺田１１０４－１"
  },
  {
    "id": 348336193,
    "key": "08613",
    "name": "イオンモール水戸内原店",
    "latitude": 36.37539552123427,
    "longitude": 140.35943192769622,
    "address": "茨城県水戸市内原２－１"
  },
  {
    "id": 348336195,
    "key": "08615",
    "name": "北茨城中郷店",
    "latitude": 36.7814563398527,
    "longitude": 140.73486284170693,
    "address": "茨城県北茨城市中郷町上桜井２２５９"
  },
  {
    "id": 348336196,
    "key": "08616",
    "name": "ひたちなか高場店",
    "latitude": 36.42072563994877,
    "longitude": 140.53891696874632,
    "address": "茨城県ひたちなか市高場１１３９－１"
  },
  {
    "id": 348336197,
    "key": "08617",
    "name": "イオンタウン水戸南店",
    "latitude": 36.31068650175018,
    "longitude": 140.44162294980183,
    "address": "茨城県東茨城郡茨城町長岡３４８０―１０１"
  },
  {
    "id": 348336198,
    "key": "08618",
    "name": "イオンタウン守谷店",
    "latitude": 35.9451476911386,
    "longitude": 139.9914150062014,
    "address": "茨城県守谷市百合ケ丘３－２４９－１"
  },
  {
    "id": 348336199,
    "key": "08619",
    "name": "１１８常陸大宮店",
    "latitude": 36.540718472095236,
    "longitude": 140.4102108660368,
    "address": "茨城県常陸大宮市石沢１８６３－１"
  },
  {
    "id": 348336200,
    "key": "08620",
    "name": "イーアスつくば店",
    "latitude": 36.08611652171954,
    "longitude": 140.08429880914397,
    "address": "茨城県つくば市研究学園５－１９"
  },
  {
    "id": 348336201,
    "key": "08621",
    "name": "イオンモール土浦店",
    "latitude": 36.08034174768502,
    "longitude": 140.1807219634642,
    "address": "茨城県土浦市上高津３６７イオン土浦ＳＣ内３階フードコート"
  },
  {
    "id": 348336202,
    "key": "08622",
    "name": "５０号水戸大工町店",
    "latitude": 36.38081565803476,
    "longitude": 140.4568659125555,
    "address": "茨城県水戸市大工町２－６－３３"
  },
  {
    "id": 348336203,
    "key": "08623",
    "name": "ＪＲ水戸駅店",
    "latitude": 36.370715660115,
    "longitude": 140.4758588929458,
    "address": "茨城県水戸市宮町１－１－１"
  },
  {
    "id": 348336204,
    "key": "08624",
    "name": "荒川沖東店",
    "latitude": 36.026744724074774,
    "longitude": 140.16991982033048,
    "address": "茨城県土浦市荒川沖東２－１８－５"
  },
  {
    "id": 348336205,
    "key": "08625",
    "name": "境町店",
    "latitude": 36.122727750987465,
    "longitude": 139.8011780911106,
    "address": "茨城県猿島郡境町大字長井戸字南前２５４"
  },
  {
    "id": 348336206,
    "key": "08626",
    "name": "つくば研究学園店",
    "latitude": 36.085534665690105,
    "longitude": 140.07493185210788,
    "address": "茨城県つくば市研究学園４－１－１"
  },
  {
    "id": 348336207,
    "key": "08627",
    "name": "４号線古河店",
    "latitude": 36.18806169912378,
    "longitude": 139.717546994417,
    "address": "茨城県古河市古河８０２－１"
  },
  {
    "id": 348336208,
    "key": "08628",
    "name": "龍ヶ崎店",
    "latitude": 35.909991612685204,
    "longitude": 140.18437173766648,
    "address": "茨城県龍ケ崎市寺後３５７２－１"
  },
  {
    "id": 348336209,
    "key": "08629",
    "name": "１２５下妻店",
    "latitude": 36.180203563675654,
    "longitude": 139.96849588916035,
    "address": "茨城県下妻市大字下妻戊１０７"
  },
  {
    "id": 348336210,
    "key": "08630",
    "name": "３５４つくば上横場店",
    "latitude": 36.03958955711385,
    "longitude": 140.08441988665433,
    "address": "茨城県つくば市上横場２１６６－１"
  },
  {
    "id": 348336211,
    "key": "08631",
    "name": "イオンモールつくば店",
    "latitude": 36.03403456501241,
    "longitude": 140.13310486791664,
    "address": "茨城県つくば市稲岡６６－１"
  },
  {
    "id": 348336212,
    "key": "08632",
    "name": "神栖店",
    "latitude": 35.901599630939195,
    "longitude": 140.63600585186936,
    "address": "茨城県神栖市筒井１６６６－１"
  },
  {
    "id": 348336213,
    "key": "08633",
    "name": "６号線日立店",
    "latitude": 36.58806439641988,
    "longitude": 140.64599876772368,
    "address": "茨城県日立市鹿島町３－４－６"
  },
  {
    "id": 348336214,
    "key": "08634",
    "name": "６号線ひたちなか店",
    "latitude": 36.398867471082475,
    "longitude": 140.5057759908175,
    "address": "茨城県ひたちなか市市毛８０５－１"
  },
  {
    "id": 348336215,
    "key": "08635",
    "name": "鉾田店",
    "latitude": 36.16699146645502,
    "longitude": 140.52665789613852,
    "address": "茨城県鉾田市安房１４０８－３"
  },
  {
    "id": 348336216,
    "key": "08636",
    "name": "友部店",
    "latitude": 36.32645846046421,
    "longitude": 140.32561881229876,
    "address": "茨城県笠間市旭町４６３－３"
  },
  {
    "id": 348336217,
    "key": "08637",
    "name": "常陸太田フォレストモール店",
    "latitude": 36.54357738070548,
    "longitude": 140.53245477849052,
    "address": "茨城県常陸太田市東部土地区画整理事業１街区１画地"
  },
  {
    "id": 348336218,
    "key": "08638",
    "name": "水戸駅南通り店",
    "latitude": 36.367233478474894,
    "longitude": 140.47313093884802,
    "address": "茨城県水戸市城南１－２－２０"
  },
  {
    "id": 348336219,
    "key": "08639",
    "name": "つくばみらい平店",
    "latitude": 36.0032875524695,
    "longitude": 140.03362597703736,
    "address": "茨城県つくばみらい市富士見ヶ丘１－２８－４"
  },
  {
    "id": 348336220,
    "key": "08640",
    "name": "５０号バイパス水戸店",
    "latitude": 36.35049549597329,
    "longitude": 140.43746884390643,
    "address": "茨城県水戸市千波町２０９４－１"
  },
  {
    "id": 348336221,
    "key": "08641",
    "name": "１２４鹿嶋店",
    "latitude": 35.96107059958975,
    "longitude": 140.64151763447188,
    "address": "茨城県鹿嶋市宮中３１４－４"
  },
  {
    "id": 348336222,
    "key": "08642",
    "name": "石岡店",
    "latitude": 36.205288682712556,
    "longitude": 140.29000192354056,
    "address": "茨城県石岡市行里川２７－１１"
  },
  {
    "id": 348336226,
    "key": "09003",
    "name": "アピタ足利店",
    "latitude": 36.32054970222461,
    "longitude": 139.44953396447784,
    "address": "栃木県足利市朝倉町２４５"
  },
  {
    "id": 348336228,
    "key": "09005",
    "name": "栃木バイパス店",
    "latitude": 36.37422050880259,
    "longitude": 139.71518894531687,
    "address": "栃木県栃木市薗部町２－６－３４"
  },
  {
    "id": 348336229,
    "key": "09006",
    "name": "５０号小山店",
    "latitude": 36.299967497534425,
    "longitude": 139.80525986846027,
    "address": "栃木県小山市西城南３－１－３４"
  },
  {
    "id": 348336231,
    "key": "09008",
    "name": "鹿沼晃望台店",
    "latitude": 36.55992160525642,
    "longitude": 139.76603294130385,
    "address": "栃木県鹿沼市貝島町５７３－１"
  },
  {
    "id": 348336233,
    "key": "09010",
    "name": "西那須野店",
    "latitude": 36.89536236920726,
    "longitude": 139.98273202241282,
    "address": "栃木県那須塩原市南郷屋２－１０６－２７"
  },
  {
    "id": 348336236,
    "key": "09013",
    "name": "白沢街道宇都宮店",
    "latitude": 36.59288063786941,
    "longitude": 139.9184590277706,
    "address": "栃木県宇都宮市下川俣町２０６－３２５"
  },
  {
    "id": 348336237,
    "key": "09014",
    "name": "４号線石橋店",
    "latitude": 36.44386165600711,
    "longitude": 139.8642699341131,
    "address": "栃木県下野市文教２－１－１４"
  },
  {
    "id": 348336238,
    "key": "09015",
    "name": "４０８真岡店",
    "latitude": 36.43683152441329,
    "longitude": 139.9623179463081,
    "address": "栃木県真岡市長田５－１－２"
  },
  {
    "id": 348336240,
    "key": "09017",
    "name": "５０号岩舟店",
    "latitude": 36.31488559689665,
    "longitude": 139.66451796986416,
    "address": "栃木県栃木市岩舟町静２３６１－２"
  },
  {
    "id": 348336260,
    "key": "09519",
    "name": "黒磯ＭＥＧＡドン・キホーテ店",
    "latitude": 36.97321947759929,
    "longitude": 140.04893214204594,
    "address": "栃木県那須塩原市材木町３－５"
  },
  {
    "id": 348336262,
    "key": "09521",
    "name": "宇都宮西口店",
    "latitude": 36.55868061103857,
    "longitude": 139.89712396588254,
    "address": "栃木県宇都宮市駅前通り３－２"
  },
  {
    "id": 348336265,
    "key": "09524",
    "name": "５０号足利店",
    "latitude": 36.30682668579694,
    "longitude": 139.4652490119425,
    "address": "栃木県足利市上渋垂町３４９－１"
  },
  {
    "id": 348336267,
    "key": "09526",
    "name": "４号線小山店",
    "latitude": 36.29996065291748,
    "longitude": 139.78845797308568,
    "address": "栃木県小山市大字神鳥谷３０８－２"
  },
  {
    "id": 348336268,
    "key": "09527",
    "name": "鹿沼インター通り店",
    "latitude": 36.549046498081,
    "longitude": 139.84891711700953,
    "address": "栃木県宇都宮市鶴田町字免ノ内１５１２－２４"
  },
  {
    "id": 348336273,
    "key": "09532",
    "name": "今市バイパス店",
    "latitude": 36.725110687791016,
    "longitude": 139.699896952412,
    "address": "栃木県日光市今市１０６８－１"
  },
  {
    "id": 348336274,
    "key": "09533",
    "name": "イオン今市店",
    "latitude": 36.73042242091862,
    "longitude": 139.70417802594028,
    "address": "栃木県日光市豊田７９－１"
  },
  {
    "id": 348336276,
    "key": "09535",
    "name": "自治医大かましん店",
    "latitude": 36.39422962290208,
    "longitude": 139.85800504422124,
    "address": "栃木県下野市祇園１－１－５"
  },
  {
    "id": 348336283,
    "key": "09542",
    "name": "５０号佐野店",
    "latitude": 36.290392701811015,
    "longitude": 139.54699517007333,
    "address": "栃木県佐野市下羽田町字車田６０５－１"
  },
  {
    "id": 348336287,
    "key": "09546",
    "name": "４号線小金井店",
    "latitude": 36.37816766015271,
    "longitude": 139.84137797074686,
    "address": "栃木県下野市小金井４－２３－６"
  },
  {
    "id": 348336290,
    "key": "09549",
    "name": "宇都宮上戸祭店",
    "latitude": 36.58864464232876,
    "longitude": 139.86457605135328,
    "address": "栃木県宇都宮市上戸祭町３３５－１"
  },
  {
    "id": 348336291,
    "key": "09550",
    "name": "足利八幡町ヤオコー店",
    "latitude": 36.325947552977794,
    "longitude": 139.43377898540058,
    "address": "栃木県足利市八幡町６００－１"
  },
  {
    "id": 348336292,
    "key": "09551",
    "name": "４号線雀宮店",
    "latitude": 36.49911148657796,
    "longitude": 139.87441091704076,
    "address": "栃木県宇都宮市宮の内４－２２８－１"
  },
  {
    "id": 348336294,
    "key": "09553",
    "name": "石井たいらや店",
    "latitude": 36.547145539303436,
    "longitude": 139.92770294127016,
    "address": "栃木県宇都宮市石井町２８００－５７"
  },
  {
    "id": 348336300,
    "key": "09559",
    "name": "イオンモール佐野新都市店",
    "latitude": 36.299294678577226,
    "longitude": 139.60620194677892,
    "address": "栃木県佐野市高萩町１３２４－１"
  },
  {
    "id": 348336302,
    "key": "09561",
    "name": "宇都宮インターパーク福田屋店",
    "latitude": 36.48994148939451,
    "longitude": 139.9074779129539,
    "address": "栃木県宇都宮市インターパーク６－１－１"
  },
  {
    "id": 348336303,
    "key": "09562",
    "name": "宇都宮ベルモール店",
    "latitude": 36.55628064271419,
    "longitude": 139.92884606954536,
    "address": "栃木県宇都宮市陽東６－２－１"
  },
  {
    "id": 348336304,
    "key": "09563",
    "name": "上三川インターチェンジ店",
    "latitude": 36.480836628119185,
    "longitude": 139.9051829360932,
    "address": "栃木県宇都宮市東谷町１２－１"
  },
  {
    "id": 348336305,
    "key": "09564",
    "name": "平成通り宇都宮店",
    "latitude": 36.54978062029505,
    "longitude": 139.89092209457033,
    "address": "栃木県宇都宮市簗瀬１―１３―１１"
  },
  {
    "id": 348336307,
    "key": "09566",
    "name": "アシコタウンあしかが店",
    "latitude": 36.33621974603932,
    "longitude": 139.47605298530615,
    "address": "栃木県足利市大月町３－２"
  },
  {
    "id": 348336308,
    "key": "09567",
    "name": "佐野浅沼店",
    "latitude": 36.31399177795653,
    "longitude": 139.5914889911588,
    "address": "栃木県佐野市浅沼町７１６－１"
  },
  {
    "id": 348336309,
    "key": "09568",
    "name": "矢板市役所通り店",
    "latitude": 36.79910153928962,
    "longitude": 139.92698510215024,
    "address": "栃木県矢板市富田１３７"
  },
  {
    "id": 348336310,
    "key": "09569",
    "name": "宝積寺バイパス店",
    "latitude": 36.619614569613006,
    "longitude": 139.99030201516698,
    "address": "栃木県塩谷郡高根沢町光陽台１－１２－３"
  },
  {
    "id": 348336311,
    "key": "09570",
    "name": "環状線栃木店",
    "latitude": 36.3939616943595,
    "longitude": 139.74935908449285,
    "address": "栃木県栃木市平柳町２－２４－１５"
  },
  {
    "id": 348336312,
    "key": "09571",
    "name": "宇都宮テクノポリスセンター店",
    "latitude": 36.5673075715379,
    "longitude": 139.98408198206948,
    "address": "栃木県宇都宮市ゆいの杜１－２－７７"
  },
  {
    "id": 348336313,
    "key": "09572",
    "name": "２９４真岡店",
    "latitude": 36.43662857228156,
    "longitude": 140.0159500346058,
    "address": "栃木県真岡市田町１３３５－１"
  },
  {
    "id": 348336314,
    "key": "09573",
    "name": "４号線宇都宮泉が丘店",
    "latitude": 36.57046341748549,
    "longitude": 139.9166701267379,
    "address": "栃木県宇都宮市泉が丘５－８－２"
  },
  {
    "id": 348336315,
    "key": "09574",
    "name": "おもちゃのまちフレスポ店",
    "latitude": 36.462846649799964,
    "longitude": 139.84133304939775,
    "address": "栃木県下都賀郡壬生町おもちゃのまち３－２－２５"
  },
  {
    "id": 348336316,
    "key": "09575",
    "name": "４００大田原店",
    "latitude": 36.85924037203238,
    "longitude": 140.01247101403433,
    "address": "栃木県大田原市浅香１－５－２６"
  },
  {
    "id": 348336317,
    "key": "09576",
    "name": "宇都宮西川田店",
    "latitude": 36.5338776117336,
    "longitude": 139.85699789467682,
    "address": "栃木県宇都宮市西川田町１０２３－２"
  },
  {
    "id": 348336318,
    "key": "09577",
    "name": "野木中央通り店",
    "latitude": 36.23408163720759,
    "longitude": 139.74382201715056,
    "address": "栃木県下都賀郡野木町丸林６１８－１"
  },
  {
    "id": 348336319,
    "key": "09578",
    "name": "４号線さくら氏家店",
    "latitude": 36.67575263766416,
    "longitude": 139.96056690855391,
    "address": "栃木県さくら市氏家２００４－１"
  },
  {
    "id": 348336320,
    "key": "09579",
    "name": "那須塩原店",
    "latitude": 36.93628156596369,
    "longitude": 140.01214995482917,
    "address": "栃木県那須塩原市島方５９６－５"
  },
  {
    "id": 348336321,
    "key": "09580",
    "name": "福田屋ショッピングプラザ店",
    "latitude": 36.57428059349062,
    "longitude": 139.90043608020932,
    "address": "栃木県宇都宮市今泉町２３７"
  },
  {
    "id": 348336327,
    "key": "10004",
    "name": "新前橋店",
    "latitude": 36.38667168290259,
    "longitude": 139.0479472464021,
    "address": "群馬県前橋市大友町１－４－１"
  },
  {
    "id": 348336329,
    "key": "10006",
    "name": "伊勢崎店",
    "latitude": 36.31069675945118,
    "longitude": 139.18422997677774,
    "address": "群馬県伊勢崎市連取町２３３５－１"
  },
  {
    "id": 348336330,
    "key": "10007",
    "name": "前橋三俣町店",
    "latitude": 36.39915480356194,
    "longitude": 139.08290205020717,
    "address": "群馬県前橋市三俣町３－３３－３２"
  },
  {
    "id": 348336331,
    "key": "10008",
    "name": "東高崎店",
    "latitude": 36.33648664998348,
    "longitude": 139.03002611754624,
    "address": "群馬県高崎市上大類町９３１"
  },
  {
    "id": 348336334,
    "key": "10011",
    "name": "前橋荒牧店",
    "latitude": 36.428479592675195,
    "longitude": 139.0546760676159,
    "address": "群馬県前橋市荒牧町２－４３－２６"
  },
  {
    "id": 348336335,
    "key": "10012",
    "name": "渋川店",
    "latitude": 36.47268759605598,
    "longitude": 139.00249127161408,
    "address": "群馬県渋川市行幸田３０７－２"
  },
  {
    "id": 348336336,
    "key": "10013",
    "name": "４０７太田店",
    "latitude": 36.27532679739437,
    "longitude": 139.37755700626516,
    "address": "群馬県太田市西矢島町６０８－１"
  },
  {
    "id": 348336337,
    "key": "10014",
    "name": "館林店",
    "latitude": 36.235319608023765,
    "longitude": 139.52994389658994,
    "address": "群馬県館林市美園町３－４"
  },
  {
    "id": 348336338,
    "key": "10015",
    "name": "沼田インター店",
    "latitude": 36.65687160896165,
    "longitude": 139.07766606733324,
    "address": "群馬県沼田市下久屋町１１００－１"
  },
  {
    "id": 348336339,
    "key": "10016",
    "name": "大胡バイパス店",
    "latitude": 36.41122774458948,
    "longitude": 139.16124006971478,
    "address": "群馬県前橋市大胡町３４９－１"
  },
  {
    "id": 348336340,
    "key": "10017",
    "name": "館林アゼリアモール店",
    "latitude": 36.24066978768681,
    "longitude": 139.56945112276205,
    "address": "群馬県館林市楠町３６４８－１"
  },
  {
    "id": 348336341,
    "key": "10018",
    "name": "５０号桐生店",
    "latitude": 36.38716657410462,
    "longitude": 139.32598213150894,
    "address": "群馬県桐生市広沢町３－３８１８－１"
  },
  {
    "id": 348336351,
    "key": "10510",
    "name": "大間々さくらもーる店",
    "latitude": 36.41416953159378,
    "longitude": 139.2817662195243,
    "address": "群馬県みどり市大字大間々４０"
  },
  {
    "id": 348336365,
    "key": "10525",
    "name": "大間々ベイシア店",
    "latitude": 36.42872279251233,
    "longitude": 139.2787711567057,
    "address": "群馬県みどり市大字大間々１７７１－３"
  },
  {
    "id": 348336368,
    "key": "10528",
    "name": "１８号安中店",
    "latitude": 36.33286483080088,
    "longitude": 138.91477511261587,
    "address": "群馬県安中市中宿字石合８１９"
  },
  {
    "id": 348336370,
    "key": "10530",
    "name": "富岡バイパス店",
    "latitude": 36.263376784804194,
    "longitude": 138.89918121805502,
    "address": "群馬県富岡市富岡字清水２２５９－２"
  },
  {
    "id": 348336372,
    "key": "10532",
    "name": "伊勢崎宮子町店",
    "latitude": 36.33634972960045,
    "longitude": 139.15524920565105,
    "address": "群馬県伊勢崎市宮子町３４５０－１"
  },
  {
    "id": 348336376,
    "key": "10536",
    "name": "伊勢崎東Ｍ．ドン・キホーテＵＮＹ店",
    "latitude": 36.3291276223963,
    "longitude": 139.23262005411343,
    "address": "群馬県伊勢崎市三室町５３３０"
  },
  {
    "id": 348336384,
    "key": "10544",
    "name": "５０号原宿南店",
    "latitude": 36.346733760033,
    "longitude": 139.380711027479,
    "address": "群馬県太田市丸山町１４０７"
  },
  {
    "id": 348336385,
    "key": "10545",
    "name": "新田ショッピングセンター店",
    "latitude": 36.30298356378226,
    "longitude": 139.30181822112664,
    "address": "群馬県太田市新田市野井町７１３"
  },
  {
    "id": 348336386,
    "key": "10546",
    "name": "新田町店",
    "latitude": 36.30555359284107,
    "longitude": 139.3034479756791,
    "address": "群馬県太田市新田市野井町７１５"
  },
  {
    "id": 348336387,
    "key": "10547",
    "name": "邑楽カインズホーム店",
    "latitude": 36.26986664820508,
    "longitude": 139.48322398701077,
    "address": "群馬県邑楽郡邑楽町大字中野３８９０－２７"
  },
  {
    "id": 348336393,
    "key": "10553",
    "name": "３５４大泉店",
    "latitude": 36.25718062025761,
    "longitude": 139.42240195203772,
    "address": "群馬県邑楽郡大泉町朝日３－１８－２"
  },
  {
    "id": 348336394,
    "key": "10554",
    "name": "吉岡フォリオ店",
    "latitude": 36.4181586372788,
    "longitude": 139.02680223241842,
    "address": "群馬県北群馬郡吉岡町大久保９０１－１"
  },
  {
    "id": 348336395,
    "key": "10555",
    "name": "玉村とりせん店",
    "latitude": 36.30216868578401,
    "longitude": 139.12639919857472,
    "address": "群馬県佐波郡玉村町上飯島２７０－１"
  },
  {
    "id": 348336396,
    "key": "10556",
    "name": "高崎小塙町店",
    "latitude": 36.34970961431031,
    "longitude": 138.96846506492,
    "address": "群馬県高崎市下小塙町１０３０－１"
  },
  {
    "id": 348336397,
    "key": "10557",
    "name": "渋川鯉沢カインズホーム店",
    "latitude": 36.50668155626548,
    "longitude": 139.01534709913335,
    "address": "群馬県渋川市白井２１４３"
  },
  {
    "id": 348336398,
    "key": "10558",
    "name": "５０号前橋朝日町店",
    "latitude": 36.38453680736718,
    "longitude": 139.08510606837262,
    "address": "群馬県前橋市朝日町３－１９－１"
  },
  {
    "id": 348336400,
    "key": "10560",
    "name": "桐生マーケットシティ店",
    "latitude": 36.405245706256125,
    "longitude": 139.31863896470864,
    "address": "群馬県桐生市相生町１－１２４－１"
  },
  {
    "id": 348336403,
    "key": "10563",
    "name": "イオンモール高崎店",
    "latitude": 36.39099480182026,
    "longitude": 139.00632622240357,
    "address": "群馬県高崎市棟高町１４００"
  },
  {
    "id": 348336404,
    "key": "10564",
    "name": "前橋けやきウォーク店",
    "latitude": 36.378842556828246,
    "longitude": 139.07845409762376,
    "address": "群馬県前橋市文京町２－１－１"
  },
  {
    "id": 348336405,
    "key": "10565",
    "name": "ＪＲ前橋駅店",
    "latitude": 36.38315968314865,
    "longitude": 139.0724941582665,
    "address": "群馬県前橋市表町２－２９－１６"
  },
  {
    "id": 348336406,
    "key": "10566",
    "name": "倉賀野西店",
    "latitude": 36.29912974074137,
    "longitude": 139.03836219471236,
    "address": "群馬県高崎市倉賀野町字下新堀３９２－１"
  },
  {
    "id": 348336407,
    "key": "10567",
    "name": "伊勢崎茂呂店",
    "latitude": 36.29763157771698,
    "longitude": 139.21529616683702,
    "address": "群馬県伊勢崎市南千木町２３９３－１"
  },
  {
    "id": 348336408,
    "key": "10568",
    "name": "前橋みなみパワーモール店",
    "latitude": 36.32971869077773,
    "longitude": 139.09846909624426,
    "address": "群馬県前橋市新堀町９５６"
  },
  {
    "id": 348336409,
    "key": "10569",
    "name": "前橋ガーデン店",
    "latitude": 36.3560815634312,
    "longitude": 139.1313032430994,
    "address": "群馬県前橋市小屋原町５４６－１"
  },
  {
    "id": 348336410,
    "key": "10570",
    "name": "太田内ヶ島店",
    "latitude": 36.29022974264842,
    "longitude": 139.3951651598712,
    "address": "群馬県太田市内ケ島町１４６１－１"
  },
  {
    "id": 348336411,
    "key": "10571",
    "name": "高崎モントレー店",
    "latitude": 36.32266469068414,
    "longitude": 139.01202406769443,
    "address": "群馬県高崎市八島町２２２番地１Ｆ"
  },
  {
    "id": 348336412,
    "key": "10572",
    "name": "１７号高崎店",
    "latitude": 36.349099751953915,
    "longitude": 139.00233105207343,
    "address": "群馬県高崎市緑町１－１－１６"
  },
  {
    "id": 348336413,
    "key": "10573",
    "name": "赤堀西久保店",
    "latitude": 36.3780607990844,
    "longitude": 139.2274440518458,
    "address": "群馬県伊勢崎市市場町１－２４－５"
  },
  {
    "id": 348336414,
    "key": "10574",
    "name": "イオンモール太田店",
    "latitude": 36.294332745669564,
    "longitude": 139.4002331671113,
    "address": "群馬県太田市石原町８１"
  },
  {
    "id": 348336415,
    "key": "10575",
    "name": "藤岡インター店",
    "latitude": 36.257187799080526,
    "longitude": 139.06770108887284,
    "address": "群馬県藤岡市篠塚７２－１"
  },
  {
    "id": 348336421,
    "key": "11003",
    "name": "所沢店",
    "latitude": 35.787230759422016,
    "longitude": 139.47279084854358,
    "address": "埼玉県所沢市日吉町２－２"
  },
  {
    "id": 348336424,
    "key": "11006",
    "name": "北浦和店",
    "latitude": 35.8725557620255,
    "longitude": 139.6465089857416,
    "address": "埼玉県さいたま市浦和区北浦和３－４－１４"
  },
  {
    "id": 348336431,
    "key": "11013",
    "name": "鶴瀬駅ビル店",
    "latitude": 35.845774786137156,
    "longitude": 139.53844900512055,
    "address": "埼玉県富士見市大字鶴馬２６０２－３"
  },
  {
    "id": 348336439,
    "key": "11021",
    "name": "川越マイン店",
    "latitude": 35.907308591192496,
    "longitude": 139.48367509134056,
    "address": "埼玉県川越市脇田町１０３"
  },
  {
    "id": 348336441,
    "key": "11023",
    "name": "１６号春日部店",
    "latitude": 35.972175808924895,
    "longitude": 139.73636894781765,
    "address": "埼玉県春日部市南中曽根８５０－１"
  },
  {
    "id": 348336443,
    "key": "11025",
    "name": "西川口店",
    "latitude": 35.81536378454564,
    "longitude": 139.70500103601836,
    "address": "埼玉県川口市並木２－２１－１"
  },
  {
    "id": 348336451,
    "key": "11033",
    "name": "浦和仲町店",
    "latitude": 35.85952970017119,
    "longitude": 139.65565484387437,
    "address": "埼玉県さいたま市浦和区仲町１－２－１４"
  },
  {
    "id": 348336452,
    "key": "11034",
    "name": "草加店",
    "latitude": 35.82548558438777,
    "longitude": 139.8042757904248,
    "address": "埼玉県草加市高砂１－２－１０"
  },
  {
    "id": 348336453,
    "key": "11035",
    "name": "新所沢店",
    "latitude": 35.800439732294585,
    "longitude": 139.44849405950382,
    "address": "埼玉県所沢市緑町３－９"
  },
  {
    "id": 348336454,
    "key": "11036",
    "name": "川口朝日町店",
    "latitude": 35.81091175751686,
    "longitude": 139.73500282888563,
    "address": "埼玉県川口市朝日３－１－８"
  },
  {
    "id": 348336455,
    "key": "11037",
    "name": "川口芝下店",
    "latitude": 35.83625375877816,
    "longitude": 139.6987040615267,
    "address": "埼玉県川口市芝下１－７－２"
  },
  {
    "id": 348336460,
    "key": "11042",
    "name": "大宮西口店",
    "latitude": 35.90500673963192,
    "longitude": 139.6228319143305,
    "address": "埼玉県さいたま市大宮区桜木町１－５－１"
  },
  {
    "id": 348336463,
    "key": "11045",
    "name": "大宮バイパス与野店",
    "latitude": 35.88490962667089,
    "longitude": 139.61473091832693,
    "address": "埼玉県さいたま市中央区八王子１－４－１５"
  },
  {
    "id": 348336465,
    "key": "11047",
    "name": "桶川マイン店",
    "latitude": 35.99798656281726,
    "longitude": 139.5628829864588,
    "address": "埼玉県桶川市若宮１－５－２"
  },
  {
    "id": 348336466,
    "key": "11048",
    "name": "本庄店",
    "latitude": 36.236378801357915,
    "longitude": 139.1831969822945,
    "address": "埼玉県本庄市南１－２－１０"
  },
  {
    "id": 348336471,
    "key": "11053",
    "name": "熊谷バイパス店",
    "latitude": 36.16560576952642,
    "longitude": 139.39230911055512,
    "address": "埼玉県熊谷市大字肥塚８７８－１"
  },
  {
    "id": 348336472,
    "key": "11054",
    "name": "４号線バイパス下間久里店",
    "latitude": 35.92882457885443,
    "longitude": 139.78734692401807,
    "address": "埼玉県越谷市大字下間久里字源前７６３－１"
  },
  {
    "id": 348336475,
    "key": "11057",
    "name": "浦和大間木店",
    "latitude": 35.872868810184826,
    "longitude": 139.69936196861207,
    "address": "埼玉県さいたま市緑区大間木５９０"
  },
  {
    "id": 348336481,
    "key": "11063",
    "name": "伊奈町店",
    "latitude": 35.97924382587431,
    "longitude": 139.64066904771602,
    "address": "埼玉県北足立郡伊奈町栄３－４８"
  },
  {
    "id": 348336482,
    "key": "11064",
    "name": "若葉店",
    "latitude": 35.950539800188174,
    "longitude": 139.4103998909978,
    "address": "埼玉県坂戸市千代田３－２１－２１"
  },
  {
    "id": 348336483,
    "key": "11065",
    "name": "埼大通り店",
    "latitude": 35.863741699944256,
    "longitude": 139.6028530643489,
    "address": "埼玉県さいたま市桜区下大久保７２０－１"
  },
  {
    "id": 348336486,
    "key": "11068",
    "name": "１６号深作店",
    "latitude": 35.954747737702675,
    "longitude": 139.6625109566218,
    "address": "埼玉県さいたま市見沼区深作３－２７－７"
  },
  {
    "id": 348336488,
    "key": "11070",
    "name": "八潮店",
    "latitude": 35.824620667116434,
    "longitude": 139.82439578120756,
    "address": "埼玉県八潮市柳之宮大道通３１５－２"
  },
  {
    "id": 348336489,
    "key": "11071",
    "name": "大宮大和田店",
    "latitude": 35.92032965837106,
    "longitude": 139.65123192656614,
    "address": "埼玉県さいたま市見沼区大和田町１－７９０－１"
  },
  {
    "id": 348336490,
    "key": "11072",
    "name": "所沢山口店",
    "latitude": 35.77830769836635,
    "longitude": 139.43469390172814,
    "address": "埼玉県所沢市山口１５１９－１"
  },
  {
    "id": 348336491,
    "key": "11073",
    "name": "１６号庄和町店",
    "latitude": 35.98880155566853,
    "longitude": 139.80288704371935,
    "address": "埼玉県春日部市金崎６５２－３"
  },
  {
    "id": 348336493,
    "key": "11075",
    "name": "浦和曲本店",
    "latitude": 35.83556758253335,
    "longitude": 139.63113901208993,
    "address": "埼玉県さいたま市南区曲本１－１９－１"
  },
  {
    "id": 348336496,
    "key": "11078",
    "name": "大宮バイパス宮原店",
    "latitude": 35.93713166741715,
    "longitude": 139.60014588272938,
    "address": "埼玉県さいたま市北区日進町３－４１６－１"
  },
  {
    "id": 348336498,
    "key": "11080",
    "name": "川越木野目店",
    "latitude": 35.89674870151177,
    "longitude": 139.5159088747703,
    "address": "埼玉県川越市木野目３５３－１"
  },
  {
    "id": 348336500,
    "key": "11082",
    "name": "行田バイパス店",
    "latitude": 36.157318629291005,
    "longitude": 139.47422297811445,
    "address": "埼玉県行田市大字小見１４５７－１"
  },
  {
    "id": 348336501,
    "key": "11083",
    "name": "吉川店",
    "latitude": 35.88538077876411,
    "longitude": 139.84578982798882,
    "address": "埼玉県吉川市平沼１－２２－１０"
  },
  {
    "id": 348336503,
    "key": "11085",
    "name": "武蔵浦和店",
    "latitude": 35.84480975113481,
    "longitude": 139.64736281193095,
    "address": "埼玉県さいたま市南区白幡５－１９－１９"
  },
  {
    "id": 348336504,
    "key": "11086",
    "name": "花園インター店",
    "latitude": 36.12190863070066,
    "longitude": 139.24097110293502,
    "address": "埼玉県深谷市荒川１５４－２"
  },
  {
    "id": 348336506,
    "key": "11088",
    "name": "獨協大学前駅店",
    "latitude": 35.843358764849874,
    "longitude": 139.8012389354971,
    "address": "埼玉県草加市栄町２－１２－１"
  },
  {
    "id": 348336508,
    "key": "11502",
    "name": "ヤオコー狭山店",
    "latitude": 35.85829371993068,
    "longitude": 139.39517184962938,
    "address": "埼玉県狭山市広瀬東２－４１－１"
  },
  {
    "id": 348336520,
    "key": "11514",
    "name": "イオンせんげん台店",
    "latitude": 35.93353155400383,
    "longitude": 139.76695902480205,
    "address": "埼玉県越谷市千間台西３－２－１２"
  },
  {
    "id": 348336536,
    "key": "11530",
    "name": "新座西友店",
    "latitude": 35.80246971255007,
    "longitude": 139.57102908013522,
    "address": "埼玉県新座市野火止８－１６－３"
  },
  {
    "id": 348336542,
    "key": "11536",
    "name": "２５４亀久保店",
    "latitude": 35.86914959418229,
    "longitude": 139.50532394679425,
    "address": "埼玉県ふじみ野市鶴ヶ岡３－２－２５"
  },
  {
    "id": 348336544,
    "key": "11538",
    "name": "鶴ヶ島コモディイイダ店",
    "latitude": 35.93667085978471,
    "longitude": 139.42251691369356,
    "address": "埼玉県鶴ヶ島市鶴ケ丘６５－１"
  },
  {
    "id": 348336553,
    "key": "11547",
    "name": "東浦和駅前店",
    "latitude": 35.86425578199315,
    "longitude": 139.70555484530487,
    "address": "埼玉県さいたま市緑区東浦和５－１－１"
  },
  {
    "id": 348336554,
    "key": "11548",
    "name": "久喜栗橋店",
    "latitude": 36.117442685096606,
    "longitude": 139.67374808310754,
    "address": "埼玉県久喜市高柳１７４１－１"
  },
  {
    "id": 348336558,
    "key": "11553",
    "name": "４６３亀ヶ谷店",
    "latitude": 35.80883183134852,
    "longitude": 139.5211839084711,
    "address": "埼玉県所沢市大字亀ヶ谷字亀寿７８"
  },
  {
    "id": 348336561,
    "key": "11556",
    "name": "みずほ台西口店",
    "latitude": 35.8375257811694,
    "longitude": 139.55122408065643,
    "address": "埼玉県富士見市西みずほ台２－１－１３"
  },
  {
    "id": 348336564,
    "key": "11559",
    "name": "１２２西新井宿店",
    "latitude": 35.84702265825072,
    "longitude": 139.73405394921025,
    "address": "埼玉県川口市大字西新井宿８９４－１"
  },
  {
    "id": 348336566,
    "key": "11561",
    "name": "吉川駅前店",
    "latitude": 35.876363668599176,
    "longitude": 139.8431198662361,
    "address": "埼玉県吉川市木売２－３－９"
  },
  {
    "id": 348336567,
    "key": "11562",
    "name": "２５４川島店",
    "latitude": 35.96968782374927,
    "longitude": 139.46957794393785,
    "address": "埼玉県比企郡川島町上伊草字菅田５２２－１"
  },
  {
    "id": 348336568,
    "key": "11563",
    "name": "白岡岡泉店",
    "latitude": 36.00722666371403,
    "longitude": 139.69863101670725,
    "address": "埼玉県白岡市太田新井１１８１－１２"
  },
  {
    "id": 348336569,
    "key": "11564",
    "name": "２５４小川町店",
    "latitude": 36.07046981535204,
    "longitude": 139.27479111346173,
    "address": "埼玉県比企郡小川町高谷１３８２－１"
  },
  {
    "id": 348336574,
    "key": "11569",
    "name": "コクーンシティ店",
    "latitude": 35.89549865474197,
    "longitude": 139.63347889095775,
    "address": "埼玉県さいたま市大宮区吉敷町４－２６３－６"
  },
  {
    "id": 348336577,
    "key": "11572",
    "name": "西武新狭山駅前店",
    "latitude": 35.874180717308036,
    "longitude": 139.43333989351146,
    "address": "埼玉県狭山市新狭山３－１２－１"
  },
  {
    "id": 348336579,
    "key": "11574",
    "name": "上尾駅西口店",
    "latitude": 35.972816742490025,
    "longitude": 139.587692999262,
    "address": "埼玉県上尾市谷津２－１２３－１７"
  },
  {
    "id": 348336582,
    "key": "11577",
    "name": "秩父公園橋ベルク店",
    "latitude": 36.000738847839486,
    "longitude": 139.0763851275822,
    "address": "埼玉県秩父市中村町４－３－２４"
  },
  {
    "id": 348336584,
    "key": "11579",
    "name": "４号線春日部店",
    "latitude": 35.963441620113954,
    "longitude": 139.7711049535759,
    "address": "埼玉県春日部市備後東１－７－１３"
  },
  {
    "id": 348336585,
    "key": "11580",
    "name": "川越クレアモール店",
    "latitude": 35.91302876193395,
    "longitude": 139.48308796633654,
    "address": "埼玉県川越市新富町２－４－３"
  },
  {
    "id": 348336586,
    "key": "11581",
    "name": "大宮カインズホーム店",
    "latitude": 35.93657471417154,
    "longitude": 139.57672790466628,
    "address": "埼玉県さいたま市西区高木１４８０－２"
  },
  {
    "id": 348336587,
    "key": "11582",
    "name": "狭山ケ丘いなげや店",
    "latitude": 35.804498779867785,
    "longitude": 139.41947609677237,
    "address": "埼玉県所沢市若狭１－２９３８－１"
  },
  {
    "id": 348336588,
    "key": "11583",
    "name": "東松山インター店",
    "latitude": 36.03478677886192,
    "longitude": 139.38413595780295,
    "address": "埼玉県東松山市大字石橋字女堀１６１１－１"
  },
  {
    "id": 348336589,
    "key": "11584",
    "name": "越谷南町店",
    "latitude": 35.85791976178059,
    "longitude": 139.80642484815112,
    "address": "埼玉県越谷市南町２－１１－８"
  },
  {
    "id": 348336590,
    "key": "11585",
    "name": "所沢狭山街道入曽店",
    "latitude": 35.8311447200016,
    "longitude": 139.432255881446,
    "address": "埼玉県狭山市水野４３１－４"
  },
  {
    "id": 348336591,
    "key": "11586",
    "name": "川越インター店",
    "latitude": 35.89377770869329,
    "longitude": 139.45571385942918,
    "address": "埼玉県川越市南大塚２－１１－２８"
  },
  {
    "id": 348336595,
    "key": "11590",
    "name": "大宮東口店",
    "latitude": 35.90624778290363,
    "longitude": 139.62553385581623,
    "address": "埼玉県さいたま市大宮区大門町１－２８－２"
  },
  {
    "id": 348336596,
    "key": "11591",
    "name": "上尾中妻ＴＡＩＲＡＹＡ店",
    "latitude": 35.984196656907585,
    "longitude": 139.57035485207714,
    "address": "埼玉県上尾市中妻３－１１－５"
  },
  {
    "id": 348336597,
    "key": "11592",
    "name": "朝霞台駅前店",
    "latitude": 35.81496874628585,
    "longitude": 139.58768382406862,
    "address": "埼玉県朝霞市浜崎１－２－８"
  },
  {
    "id": 348336598,
    "key": "11593",
    "name": "上里町七本木ベルク店",
    "latitude": 36.23819362560801,
    "longitude": 139.16352721337677,
    "address": "埼玉県児玉郡上里町七本木２５５８－１"
  },
  {
    "id": 348336600,
    "key": "11595",
    "name": "嵐山バイパスヤオコー店",
    "latitude": 36.042107736147315,
    "longitude": 139.31578290984015,
    "address": "埼玉県比企郡嵐山町平沢２４４０"
  },
  {
    "id": 348336602,
    "key": "11597",
    "name": "１７号本庄店",
    "latitude": 36.233907567357406,
    "longitude": 139.20968313609677,
    "address": "埼玉県本庄市寿３－４－１９"
  },
  {
    "id": 348336603,
    "key": "11598",
    "name": "蕨ヤオコー店",
    "latitude": 35.8227226706544,
    "longitude": 139.69441386246223,
    "address": "埼玉県蕨市南町１－５－２"
  },
  {
    "id": 348336605,
    "key": "11600",
    "name": "草加遊馬町店",
    "latitude": 35.81710981010161,
    "longitude": 139.77130393405213,
    "address": "埼玉県草加市遊馬町７２－１"
  },
  {
    "id": 348336609,
    "key": "11604",
    "name": "笹目通り和光店",
    "latitude": 35.792887599435836,
    "longitude": 139.6386248168341,
    "address": "埼玉県和光市白子４－１－１"
  },
  {
    "id": 348336613,
    "key": "11608",
    "name": "草加松原サンベルクス店",
    "latitude": 35.839664650817504,
    "longitude": 139.79802991379063,
    "address": "埼玉県草加市草加３－９－１３"
  },
  {
    "id": 348336615,
    "key": "11610",
    "name": "久喜駅前店",
    "latitude": 36.066129678894484,
    "longitude": 139.6764260644687,
    "address": "埼玉県久喜市久喜中央１－１－３"
  },
  {
    "id": 348336616,
    "key": "11611",
    "name": "４０７鶴ヶ島店",
    "latitude": 35.94091876086378,
    "longitude": 139.3930809275616,
    "address": "埼玉県鶴ヶ島市大字脚折万神ケ谷戸１１４１－４"
  },
  {
    "id": 348336621,
    "key": "11616",
    "name": "深谷駅前店",
    "latitude": 36.19211869426668,
    "longitude": 139.28197695146662,
    "address": "埼玉県深谷市西島町２－１０－１"
  },
  {
    "id": 348336623,
    "key": "11618",
    "name": "志木東口店",
    "latitude": 35.82361160243143,
    "longitude": 139.57514982251527,
    "address": "埼玉県志木市本町５－２５－８"
  },
  {
    "id": 348336624,
    "key": "11619",
    "name": "１７号吹上店",
    "latitude": 36.11342269184978,
    "longitude": 139.4400349201545,
    "address": "埼玉県鴻巣市新宿２－１８０"
  },
  {
    "id": 348336625,
    "key": "11620",
    "name": "南与野マルエツ店",
    "latitude": 35.86839580761498,
    "longitude": 139.63066883772765,
    "address": "埼玉県さいたま市中央区鈴谷２－５４８－２"
  },
  {
    "id": 348336632,
    "key": "11628",
    "name": "新座与野フードセンター店",
    "latitude": 35.80327983486374,
    "longitude": 139.55822097288257,
    "address": "埼玉県新座市野火止５－２－６０"
  },
  {
    "id": 348336633,
    "key": "11629",
    "name": "上尾セキチュー店",
    "latitude": 36.000116561745415,
    "longitude": 139.60289503644626,
    "address": "埼玉県上尾市須ケ谷１－２４０"
  },
  {
    "id": 348336635,
    "key": "11631",
    "name": "上尾地頭方店",
    "latitude": 35.95246157449859,
    "longitude": 139.56806688979333,
    "address": "埼玉県上尾市地頭方４０８－２"
  },
  {
    "id": 348336636,
    "key": "11632",
    "name": "４６３小手指ケ原店",
    "latitude": 35.797348639480084,
    "longitude": 139.42560585971765,
    "address": "埼玉県所沢市北野２－２－１１"
  },
  {
    "id": 348336637,
    "key": "11633",
    "name": "高坂駅前店",
    "latitude": 36.00218082144413,
    "longitude": 139.39716810491834,
    "address": "埼玉県東松山市元宿１－１４－３"
  },
  {
    "id": 348336638,
    "key": "11634",
    "name": "毛呂山店",
    "latitude": 35.947583800405965,
    "longitude": 139.32902697600997,
    "address": "埼玉県入間郡毛呂山町大字川角字西原４－１"
  },
  {
    "id": 348336639,
    "key": "11635",
    "name": "坂戸千代田ヤオコー店",
    "latitude": 35.957179782999766,
    "longitude": 139.40669410690035,
    "address": "埼玉県坂戸市千代田２－１０１－１"
  },
  {
    "id": 348336640,
    "key": "11636",
    "name": "２９９バイパス笹井店",
    "latitude": 35.84646064334517,
    "longitude": 139.36494907469057,
    "address": "埼玉県狭山市大字笹井字八木２６７７－９"
  },
  {
    "id": 348336641,
    "key": "11637",
    "name": "所沢北原町店",
    "latitude": 35.80706371986257,
    "longitude": 139.48031302234543,
    "address": "埼玉県所沢市北原町１３７３－２"
  },
  {
    "id": 348336644,
    "key": "11640",
    "name": "西武入間市駅店",
    "latitude": 35.84212762293207,
    "longitude": 139.38964297079065,
    "address": "埼玉県入間市河原町２－１"
  },
  {
    "id": 348336646,
    "key": "11642",
    "name": "イオン大宮店",
    "latitude": 35.92333376557742,
    "longitude": 139.60987088934706,
    "address": "埼玉県さいたま市北区櫛引町２－５７４－１"
  },
  {
    "id": 348336647,
    "key": "11643",
    "name": "松伏いなげや店",
    "latitude": 35.92674269009006,
    "longitude": 139.82193684103194,
    "address": "埼玉県北葛飾郡松伏町松葉１－１２"
  },
  {
    "id": 348336648,
    "key": "11644",
    "name": "イオン熊谷店",
    "latitude": 36.145838756909875,
    "longitude": 139.3785849821203,
    "address": "埼玉県熊谷市本石２－１３５"
  },
  {
    "id": 348336649,
    "key": "11645",
    "name": "狭山北入曽ヤオコー店",
    "latitude": 35.84635180063967,
    "longitude": 139.42889305834674,
    "address": "埼玉県狭山市北入曽７２０－１"
  },
  {
    "id": 348336654,
    "key": "11650",
    "name": "大宮バイパス三橋店",
    "latitude": 35.90733076592077,
    "longitude": 139.59628297444945,
    "address": "埼玉県さいたま市西区三橋５－１６４８－１"
  },
  {
    "id": 348336658,
    "key": "11654",
    "name": "鳩ケ谷駅前店",
    "latitude": 35.83013463633752,
    "longitude": 139.73676190203386,
    "address": "埼玉県川口市坂下町１－１４－１９"
  },
  {
    "id": 348336659,
    "key": "11655",
    "name": "１２２羽生店",
    "latitude": 36.14234972919795,
    "longitude": 139.55534302809872,
    "address": "埼玉県羽生市大字下川崎１６２－１"
  },
  {
    "id": 348336660,
    "key": "11656",
    "name": "せんげん台駅西口店",
    "latitude": 35.93539567907361,
    "longitude": 139.7732359141734,
    "address": "埼玉県越谷市千間台西１－４－３"
  },
  {
    "id": 348336662,
    "key": "11658",
    "name": "北越谷東急ストア店",
    "latitude": 35.902169630660275,
    "longitude": 139.7806588554205,
    "address": "埼玉県越谷市大沢３－６－１"
  },
  {
    "id": 348336663,
    "key": "11659",
    "name": "４号線越谷店",
    "latitude": 35.89474875356493,
    "longitude": 139.76853991109456,
    "address": "埼玉県越谷市神明町２－８１－１"
  },
  {
    "id": 348336664,
    "key": "11660",
    "name": "新座ライフ店",
    "latitude": 35.75556085825673,
    "longitude": 139.5508940690336,
    "address": "埼玉県新座市栗原４－１２－２５"
  },
  {
    "id": 348336668,
    "key": "11664",
    "name": "２５４三芳店",
    "latitude": 35.81915671009108,
    "longitude": 139.5499349298895,
    "address": "埼玉県新座市中野２－２－３"
  },
  {
    "id": 348336670,
    "key": "11666",
    "name": "１６号古谷店",
    "latitude": 35.91684872746912,
    "longitude": 139.5187680969675,
    "address": "埼玉県川越市大字古谷上９９１－１"
  },
  {
    "id": 348336680,
    "key": "11677",
    "name": "新座池田ベルク店",
    "latitude": 35.76964179855869,
    "longitude": 139.57282302417184,
    "address": "埼玉県新座市池田４－５－１２"
  },
  {
    "id": 348336685,
    "key": "11682",
    "name": "川口差間店",
    "latitude": 35.86487962516938,
    "longitude": 139.7271799225728,
    "address": "埼玉県川口市大字差間１８８－１"
  },
  {
    "id": 348336686,
    "key": "11683",
    "name": "所沢北原ザ・マーケットプレイス店",
    "latitude": 35.809625677591754,
    "longitude": 139.48124700648702,
    "address": "埼玉県所沢市北原町１４１５－１"
  },
  {
    "id": 348336687,
    "key": "11684",
    "name": "ふじみ野駅前店",
    "latitude": 35.860586845958295,
    "longitude": 139.5222139608385,
    "address": "埼玉県富士見市ふじみ野西１－２０－２第七マツモトビル"
  },
  {
    "id": 348336688,
    "key": "11685",
    "name": "熊谷佐谷田店",
    "latitude": 36.135812796902734,
    "longitude": 139.4247131000086,
    "address": "埼玉県熊谷市佐谷田字飯塚１３８４"
  },
  {
    "id": 348336690,
    "key": "11687",
    "name": "ＪＲ戸田公園店",
    "latitude": 35.808153856697935,
    "longitude": 139.67732285030598,
    "address": "埼玉県戸田市本町４－１５－１２"
  },
  {
    "id": 348336691,
    "key": "11688",
    "name": "北本石戸店",
    "latitude": 36.0204436118473,
    "longitude": 139.52690292870676,
    "address": "埼玉県北本市石戸５－１７３－２"
  },
  {
    "id": 348336693,
    "key": "11690",
    "name": "熊谷ヤオコー店",
    "latitude": 36.138897732016154,
    "longitude": 139.39388117443184,
    "address": "埼玉県熊谷市銀座２－１２３－１"
  },
  {
    "id": 348336696,
    "key": "11693",
    "name": "大宮宮原イトーヨーカドー店",
    "latitude": 35.93302657919607,
    "longitude": 139.62099482508697,
    "address": "埼玉県さいたま市北区宮原町１－８５４－１"
  },
  {
    "id": 348336697,
    "key": "11694",
    "name": "イオンモール北戸田店",
    "latitude": 35.82693580855037,
    "longitude": 139.65300194183064,
    "address": "埼玉県戸田市美女木東１－３－１"
  },
  {
    "id": 348336698,
    "key": "11695",
    "name": "三郷ピアラシティ店",
    "latitude": 35.842571695210964,
    "longitude": 139.85524687449802,
    "address": "埼玉県三郷市ピアラシティ１－１－２００"
  },
  {
    "id": 348336699,
    "key": "11696",
    "name": "川口領家店",
    "latitude": 35.79507968914453,
    "longitude": 139.7466730310663,
    "address": "埼玉県川口市領家３－５－３"
  },
  {
    "id": 348336702,
    "key": "11699",
    "name": "イオンモール浦和美園店",
    "latitude": 35.8919597192682,
    "longitude": 139.73074102152046,
    "address": "埼玉県さいたま市緑区美園５－５０－１"
  },
  {
    "id": 348336703,
    "key": "11700",
    "name": "川口東口店",
    "latitude": 35.80300469823777,
    "longitude": 139.71817291387322,
    "address": "埼玉県川口市栄町３－５－１"
  },
  {
    "id": 348336704,
    "key": "11701",
    "name": "戸塚安行店",
    "latitude": 35.85938566631892,
    "longitude": 139.7532109842039,
    "address": "埼玉県川口市長蔵新田３２６－１"
  },
  {
    "id": 348336705,
    "key": "11702",
    "name": "２５４児玉店",
    "latitude": 36.198092659708735,
    "longitude": 139.1333092209628,
    "address": "埼玉県本庄市児玉町吉田林３８４－１"
  },
  {
    "id": 348336706,
    "key": "11703",
    "name": "１６号指扇店",
    "latitude": 35.924308793169864,
    "longitude": 139.58390501065153,
    "address": "埼玉県さいたま市西区宮前町７３３－１"
  },
  {
    "id": 348336707,
    "key": "11704",
    "name": "加須ビバモール店",
    "latitude": 36.11053171915724,
    "longitude": 139.6088289175919,
    "address": "埼玉県加須市下高柳１－２９"
  },
  {
    "id": 348336708,
    "key": "11705",
    "name": "戸田市役所南通り店",
    "latitude": 35.816529612416886,
    "longitude": 139.67859490402304,
    "address": "埼玉県戸田市上戸田１－１７－１"
  },
  {
    "id": 348336709,
    "key": "11706",
    "name": "４０７妻沼イール店",
    "latitude": 36.20991181774785,
    "longitude": 139.37041112808083,
    "address": "埼玉県熊谷市弥藤吾１１２０－１"
  },
  {
    "id": 348336710,
    "key": "11707",
    "name": "イオンモール羽生店",
    "latitude": 36.142690756441674,
    "longitude": 139.54333293157666,
    "address": "埼玉県羽生市川崎２－２８１－３"
  },
  {
    "id": 348336711,
    "key": "11708",
    "name": "ララガーデン春日部店",
    "latitude": 35.977317677468385,
    "longitude": 139.7551338049934,
    "address": "埼玉県春日部市南１－１－１"
  },
  {
    "id": 348336712,
    "key": "11709",
    "name": "東越谷店",
    "latitude": 35.896868752021184,
    "longitude": 139.79803092513143,
    "address": "埼玉県越谷市東越谷３－１７－５"
  },
  {
    "id": 348336714,
    "key": "11711",
    "name": "イオンレイクタウンｍｏｒｉ店",
    "latitude": 35.88214177190191,
    "longitude": 139.82783898689723,
    "address": "埼玉県越谷市レイクタウン３－１－１イオンレイクタウンＭＯＲＩ３階Ｂ街区３３１９"
  },
  {
    "id": 348336715,
    "key": "11712",
    "name": "ララガーデン川口店",
    "latitude": 35.8053016889304,
    "longitude": 139.69846283217476,
    "address": "埼玉県川口市宮町１８－９"
  },
  {
    "id": 348336716,
    "key": "11713",
    "name": "三郷三丁目店",
    "latitude": 35.8460217006723,
    "longitude": 139.88021183446529,
    "address": "埼玉県三郷市三郷３－１２－３"
  },
  {
    "id": 348336717,
    "key": "11714",
    "name": "菖蒲モラージュ店",
    "latitude": 36.07461062194983,
    "longitude": 139.61297197472422,
    "address": "埼玉県久喜市菖蒲町菖蒲６００５－１"
  },
  {
    "id": 348336718,
    "key": "11715",
    "name": "ららぽーと新三郷店",
    "latitude": 35.858773549887125,
    "longitude": 139.86818289433296,
    "address": "埼玉県三郷市新三郷ららシティ３－１－１"
  },
  {
    "id": 348336719,
    "key": "11716",
    "name": "４号線草加西町店",
    "latitude": 35.82666765161264,
    "longitude": 139.79312891283988,
    "address": "埼玉県草加市西町６０－１"
  },
  {
    "id": 348336720,
    "key": "11717",
    "name": "熊谷駅前店",
    "latitude": 36.1404288190112,
    "longitude": 139.38909596708953,
    "address": "埼玉県熊谷市筑波２－１０２Ｓｊビルディング１・２階"
  },
  {
    "id": 348336721,
    "key": "11718",
    "name": "川口南町店",
    "latitude": 35.80480685501922,
    "longitude": 139.70258000166413,
    "address": "埼玉県川口市南町２－７－１１"
  },
  {
    "id": 348336722,
    "key": "11719",
    "name": "４０７高坂店",
    "latitude": 36.00478471133686,
    "longitude": 139.40825399477262,
    "address": "埼玉県東松山市あずま町２－８－２"
  },
  {
    "id": 348336723,
    "key": "11720",
    "name": "越谷レイクタウン店",
    "latitude": 35.883947630083014,
    "longitude": 139.8156938358302,
    "address": "埼玉県越谷市レイクタウン２－１－１"
  },
  {
    "id": 348336724,
    "key": "11721",
    "name": "朝霞三原店",
    "latitude": 35.80683076274384,
    "longitude": 139.57678285865202,
    "address": "埼玉県朝霞市三原１－１－１１"
  },
  {
    "id": 348336725,
    "key": "11722",
    "name": "４号線草加清門町店",
    "latitude": 35.851314655303426,
    "longitude": 139.78507887674687,
    "address": "埼玉県草加市清門１－２７０－１"
  },
  {
    "id": 348336726,
    "key": "11723",
    "name": "１４０秩父店",
    "latitude": 35.99664683891071,
    "longitude": 139.08789013620543,
    "address": "埼玉県秩父市上野町４－３"
  },
  {
    "id": 348336727,
    "key": "11724",
    "name": "２９９バイパス飯能店",
    "latitude": 35.86140170511852,
    "longitude": 139.32213213798025,
    "address": "埼玉県飯能市中山３３５－２"
  },
  {
    "id": 348336728,
    "key": "11725",
    "name": "八潮駅前店",
    "latitude": 35.8096487372016,
    "longitude": 139.8448129856736,
    "address": "埼玉県八潮市大瀬１－１１－１３"
  },
  {
    "id": 348336729,
    "key": "11726",
    "name": "桶川下日出谷店",
    "latitude": 35.99526669063012,
    "longitude": 139.54580289011386,
    "address": "埼玉県桶川市下日出谷西１－３３－７"
  },
  {
    "id": 348336730,
    "key": "11727",
    "name": "三郷中央店",
    "latitude": 35.82842859318982,
    "longitude": 139.87683978000507,
    "address": "埼玉県三郷市中央３－１９－２"
  },
  {
    "id": 348336731,
    "key": "11728",
    "name": "イオン大井店",
    "latitude": 35.85975283827529,
    "longitude": 139.51423189803288,
    "address": "埼玉県ふじみ野市ふじみ野１－２－１"
  },
  {
    "id": 348336732,
    "key": "11729",
    "name": "鷲宮アリオ店",
    "latitude": 36.07859562699929,
    "longitude": 139.66089188241207,
    "address": "埼玉県久喜市久本寺字谷田７－１"
  },
  {
    "id": 348336733,
    "key": "11730",
    "name": "４号線幸手店",
    "latitude": 36.05251370404691,
    "longitude": 139.71707592702865,
    "address": "埼玉県幸手市大字上高野２０２６－１"
  },
  {
    "id": 348336734,
    "key": "11731",
    "name": "２５４和光店",
    "latitude": 35.784848661205736,
    "longitude": 139.60282791201712,
    "address": "埼玉県和光市本町２７－２１"
  },
  {
    "id": 348336735,
    "key": "11732",
    "name": "深谷上柴店",
    "latitude": 36.17860470138256,
    "longitude": 139.30377618344335,
    "address": "埼玉県深谷市上柴町東５－７－５"
  },
  {
    "id": 348336736,
    "key": "11733",
    "name": "にっさい花みず木店",
    "latitude": 35.96917882173273,
    "longitude": 139.36950791719346,
    "address": "埼玉県坂戸市にっさい花みず木３－２０－１"
  },
  {
    "id": 348336737,
    "key": "11734",
    "name": "１６号入間宮寺店",
    "latitude": 35.800075777452435,
    "longitude": 139.37129400073937,
    "address": "埼玉県入間市宮寺２３２２－１１"
  },
  {
    "id": 348336738,
    "key": "11735",
    "name": "イオンモール春日部店",
    "latitude": 35.988164576135766,
    "longitude": 139.7886168970786,
    "address": "埼玉県春日部市下柳４２０－１"
  },
  {
    "id": 348336739,
    "key": "11736",
    "name": "大宮本郷店",
    "latitude": 35.94601262031534,
    "longitude": 139.62133704716163,
    "address": "埼玉県さいたま市北区本郷町８６０"
  },
  {
    "id": 348336740,
    "key": "11737",
    "name": "上尾アリオ店",
    "latitude": 35.96139077804177,
    "longitude": 139.56566784402474,
    "address": "埼玉県上尾市壱丁目北２９－１４"
  },
  {
    "id": 348336741,
    "key": "11738",
    "name": "１４０熊谷広瀬店",
    "latitude": 36.152767710074336,
    "longitude": 139.35848309204525,
    "address": "埼玉県熊谷市広瀬１５５－１"
  },
  {
    "id": 348336742,
    "key": "11739",
    "name": "日高下鹿山店",
    "latitude": 35.898376612876824,
    "longitude": 139.35065404754096,
    "address": "埼玉県日高市下鹿山１０－１"
  },
  {
    "id": 348336743,
    "key": "11740",
    "name": "４０７東松山店",
    "latitude": 36.03706878763418,
    "longitude": 139.4170169374075,
    "address": "埼玉県東松山市新宿町１－１"
  },
  {
    "id": 348336744,
    "key": "11741",
    "name": "イオンモール与野店",
    "latitude": 35.89136363606736,
    "longitude": 139.61534088311552,
    "address": "埼玉県さいたま市中央区本町西５－２－９イオンモール与野１Ｆ"
  },
  {
    "id": 348336745,
    "key": "11742",
    "name": "１７号籠原新堀店",
    "latitude": 36.17822770739752,
    "longitude": 139.33147715248123,
    "address": "埼玉県熊谷市新堀８６１－１"
  },
  {
    "id": 348336746,
    "key": "11743",
    "name": "富士見ららぽーと店",
    "latitude": 35.85821977202552,
    "longitude": 139.54896094011602,
    "address": "埼玉県富士見市山室１－１３１３"
  },
  {
    "id": 348336747,
    "key": "11744",
    "name": "イオンレイクタウンｋａｚｅ店",
    "latitude": 35.878336578355764,
    "longitude": 139.82533796546326,
    "address": "埼玉県越谷市レイクタウン４－２－２イオンレイクタウンＫＡＺＥ１階１１２区画"
  },
  {
    "id": 348336748,
    "key": "11745",
    "name": "川越上寺山店",
    "latitude": 35.9305358275743,
    "longitude": 139.46816298002082,
    "address": "埼玉県川越市上寺山３８４－１"
  },
  {
    "id": 348336749,
    "key": "11746",
    "name": "久喜インター店",
    "latitude": 36.06711354150133,
    "longitude": 139.65895501700658,
    "address": "埼玉県久喜市上早見１６９－１"
  },
  {
    "id": 348336750,
    "key": "11747",
    "name": "グランエミオ所沢店",
    "latitude": 35.786259796224385,
    "longitude": 139.4742290980686,
    "address": "埼玉県所沢市くすのき台１－１４－５"
  },
  {
    "id": 348336751,
    "key": "11748",
    "name": "川越Ｕ＿ＰＬＡＣＥ店",
    "latitude": 35.90621171113214,
    "longitude": 139.48144004878094,
    "address": "埼玉県川越市脇田本町８－１他ＵＰＬＡＣＥ"
  },
  {
    "id": 348336752,
    "key": "11749",
    "name": "ミエルかわぐち店",
    "latitude": 35.80092269282142,
    "longitude": 139.72786689518836,
    "address": "埼玉県川口市本町２－７－２５"
  },
  {
    "id": 348336753,
    "key": "11750",
    "name": "エルミこうのす店",
    "latitude": 36.05950067478887,
    "longitude": 139.5098219697425,
    "address": "埼玉県鴻巣市本町１－１－２エルミこうのすショッピングモール２Ｆ"
  },
  {
    "id": 348336754,
    "key": "11751",
    "name": "イオンモール上尾店",
    "latitude": 35.96458466390311,
    "longitude": 139.59976285795975,
    "address": "埼玉県上尾市愛宕３－８－１"
  },
  {
    "id": 348336755,
    "key": "11752",
    "name": "入間安川通り店",
    "latitude": 35.82645061817604,
    "longitude": 139.4043048463957,
    "address": "埼玉県入間市下藤沢１８８－１"
  },
  {
    "id": 348336756,
    "key": "11753",
    "name": "春日部八丁目店",
    "latitude": 35.98730880751209,
    "longitude": 139.75650994694863,
    "address": "埼玉県春日部市八丁目５１６－１"
  },
  {
    "id": 348336757,
    "key": "11754",
    "name": "イオンタウンふじみ野店",
    "latitude": 35.88112178642703,
    "longitude": 139.52367189769478,
    "address": "埼玉県ふじみ野市福岡２－１－６"
  },
  {
    "id": 348336758,
    "key": "11755",
    "name": "浦和美園店",
    "latitude": 35.89473162788963,
    "longitude": 139.73071785548728,
    "address": "埼玉県さいたま市緑区美園４－５－１６"
  },
  {
    "id": 348336759,
    "key": "11756",
    "name": "大宮ＤＯＭ店",
    "latitude": 35.90664680151224,
    "longitude": 139.62169083418206,
    "address": "埼玉県さいたま市大宮区桜木町２－３"
  },
  {
    "id": 348336760,
    "key": "11757",
    "name": "ビバモール蕨錦町店",
    "latitude": 35.822412810500325,
    "longitude": 139.67758780787764,
    "address": "埼玉県蕨市錦町１－１２－１"
  },
  {
    "id": 348336761,
    "key": "11758",
    "name": "南与野店",
    "latitude": 35.86622363799594,
    "longitude": 139.6338458768529,
    "address": "埼玉県さいたま市中央区大戸６－１３０８－１"
  },
  {
    "id": 348336762,
    "key": "11759",
    "name": "イオンモール川口店",
    "latitude": 35.837501765247055,
    "longitude": 139.7228469552787,
    "address": "埼玉県川口市安行領根岸３１８０イオンモール川口２Ｆ"
  },
  {
    "id": 348336763,
    "key": "11760",
    "name": "上尾運動公園店",
    "latitude": 35.97138061542655,
    "longitude": 139.6017579673663,
    "address": "埼玉県上尾市東町２－１－２０"
  },
  {
    "id": 348336764,
    "key": "11762",
    "name": "ウニクス伊奈店",
    "latitude": 36.0111028135609,
    "longitude": 139.6130539995961,
    "address": "埼玉県北足立郡伊奈町学園２－１８８－１"
  },
  {
    "id": 348336765,
    "key": "11763",
    "name": "１７号北本中丸店",
    "latitude": 36.020420740328696,
    "longitude": 139.55439502309784,
    "address": "埼玉県北本市中丸８－３－１"
  },
  {
    "id": 348336766,
    "key": "11764",
    "name": "１７号鴻巣店",
    "latitude": 36.08128957559018,
    "longitude": 139.488390973751,
    "address": "埼玉県鴻巣市箕田１８７５－１"
  },
  {
    "id": 348336767,
    "key": "11765",
    "name": "蕨東口店",
    "latitude": 35.82812474948708,
    "longitude": 139.69107698397542,
    "address": "埼玉県蕨市塚越１－３－１"
  },
  {
    "id": 348336768,
    "key": "11766",
    "name": "南浦和太田窪店",
    "latitude": 35.8610328015631,
    "longitude": 139.67406682512782,
    "address": "埼玉県さいたま市緑区太田窪３－１６－１"
  },
  {
    "id": 348336769,
    "key": "11767",
    "name": "新越谷駅前店",
    "latitude": 35.87577371639556,
    "longitude": 139.79081295201874,
    "address": "埼玉県越谷市南越谷１－１９－１"
  },
  {
    "id": 348336770,
    "key": "11768",
    "name": "南浦和東口店",
    "latitude": 35.847598662176885,
    "longitude": 139.6703187987044,
    "address": "埼玉県さいたま市南区南浦和２－３９－１８"
  },
  {
    "id": 348336771,
    "key": "11769",
    "name": "三芳藤久保店",
    "latitude": 35.837811774867866,
    "longitude": 139.52722000605334,
    "address": "埼玉県入間郡三芳町藤久保字富士塚７００１"
  },
  {
    "id": 348336772,
    "key": "11770",
    "name": "エキア谷塚店",
    "latitude": 35.813746822261066,
    "longitude": 139.8010840372461,
    "address": "埼玉県草加市谷塚１－１－２３"
  },
  {
    "id": 348336773,
    "key": "11771",
    "name": "イオンモール川口前川店",
    "latitude": 35.83373677668995,
    "longitude": 139.70742980910353,
    "address": "埼玉県川口市前川１－１－１１イオンモール川口前川１Ｆ"
  },
  {
    "id": 348336774,
    "key": "11772",
    "name": "三郷戸ケ崎店",
    "latitude": 35.79916078569945,
    "longitude": 139.86670488378158,
    "address": "埼玉県三郷市戸ヶ崎２－８１９－１"
  },
  {
    "id": 348336775,
    "key": "11773",
    "name": "エキア越谷店",
    "latitude": 35.88867962934086,
    "longitude": 139.78595978550163,
    "address": "埼玉県越谷市弥生町４－１１"
  },
  {
    "id": 348336776,
    "key": "11774",
    "name": "武蔵浦和辻店",
    "latitude": 35.83842558846694,
    "longitude": 139.66209486996877,
    "address": "埼玉県さいたま市南区辻１－３１－１０"
  },
  {
    "id": 348336777,
    "key": "11775",
    "name": "大宮アルシェ店",
    "latitude": 35.906013828526746,
    "longitude": 139.6221030468586,
    "address": "埼玉県さいたま市大宮区桜木町２－１－１大宮アルシェ２Ｆ"
  },
  {
    "id": 348336778,
    "key": "11776",
    "name": "白岡西店",
    "latitude": 36.02427376399266,
    "longitude": 139.6521998416921,
    "address": "埼玉県白岡市西１０－１－５"
  },
  {
    "id": 348336779,
    "key": "11777",
    "name": "１６号岩槻店",
    "latitude": 35.94272662179317,
    "longitude": 139.70481894737958,
    "address": "埼玉県さいたま市岩槻区城南２－１－８０"
  },
  {
    "id": 348336780,
    "key": "11778",
    "name": "アリオ川口店",
    "latitude": 35.80769459598345,
    "longitude": 139.71336480040955,
    "address": "埼玉県川口市並木元町１－７９１Ｆ"
  },
  {
    "id": 348336781,
    "key": "11781",
    "name": "川越的場店",
    "latitude": 35.91906664663892,
    "longitude": 139.42940592300786,
    "address": "埼玉県川越市的場新町１４－６"
  },
  {
    "id": 348336792,
    "key": "12003",
    "name": "本八幡南口店",
    "latitude": 35.72038571214318,
    "longitude": 139.92662187518948,
    "address": "千葉県市川市南八幡４－６－１"
  },
  {
    "id": 348336796,
    "key": "12007",
    "name": "千葉富士見町店",
    "latitude": 35.610850632082055,
    "longitude": 140.11642967751843,
    "address": "千葉県千葉市中央区富士見町２－４－１４"
  },
  {
    "id": 348336801,
    "key": "12012",
    "name": "１４号幸町店",
    "latitude": 35.61921860604989,
    "longitude": 140.0967198942367,
    "address": "千葉県千葉市美浜区幸町２－２４－１川島屋幸町ビル"
  },
  {
    "id": 348336802,
    "key": "12013",
    "name": "１４号幕張店",
    "latitude": 35.66244762072997,
    "longitude": 140.0444647891508,
    "address": "千葉県千葉市花見川区幕張町１－７７８５－１"
  },
  {
    "id": 348336803,
    "key": "12014",
    "name": "柏店",
    "latitude": 35.861097747084926,
    "longitude": 139.97171094745246,
    "address": "千葉県柏市柏１－２－３１"
  },
  {
    "id": 348336804,
    "key": "12015",
    "name": "京成船橋店",
    "latitude": 35.70011959050251,
    "longitude": 139.98603987988142,
    "address": "千葉県船橋市本町１－５－３"
  },
  {
    "id": 348336807,
    "key": "12018",
    "name": "津田沼駅前店",
    "latitude": 35.69185256570627,
    "longitude": 140.02074588545543,
    "address": "千葉県船橋市前原西２－１４－８津田沼パスタ１Ｆ"
  },
  {
    "id": 348336808,
    "key": "12019",
    "name": "６号新松戸店",
    "latitude": 35.817197581859986,
    "longitude": 139.92636575117757,
    "address": "千葉県松戸市二ッ木１７８２－１"
  },
  {
    "id": 348336811,
    "key": "12022",
    "name": "浦安店",
    "latitude": 35.66558265317095,
    "longitude": 139.89344773350714,
    "address": "千葉県浦安市北栄１－１５－１３"
  },
  {
    "id": 348336814,
    "key": "12025",
    "name": "１６号野田店",
    "latitude": 35.95832969368543,
    "longitude": 139.87395779069226,
    "address": "千葉県野田市鶴奉１９"
  },
  {
    "id": 348336815,
    "key": "12026",
    "name": "１６号穴川店",
    "latitude": 35.649855736305305,
    "longitude": 140.11787686624768,
    "address": "千葉県千葉市稲毛区園生町３７２－１"
  },
  {
    "id": 348336817,
    "key": "12028",
    "name": "行徳店",
    "latitude": 35.683407592638616,
    "longitude": 139.91414192693793,
    "address": "千葉県市川市行徳駅前２－１－３０"
  },
  {
    "id": 348336819,
    "key": "12030",
    "name": "成田駅前店",
    "latitude": 35.77757257072471,
    "longitude": 140.3152977567777,
    "address": "千葉県成田市花崎町８１６－２"
  },
  {
    "id": 348336820,
    "key": "12031",
    "name": "君津店",
    "latitude": 35.32955478964245,
    "longitude": 139.9240746844749,
    "address": "千葉県君津市南子安８－２－３２"
  },
  {
    "id": 348336821,
    "key": "12032",
    "name": "茂原店",
    "latitude": 35.427367739965604,
    "longitude": 140.28724461479263,
    "address": "千葉県茂原市茂原８５－１"
  },
  {
    "id": 348336823,
    "key": "12034",
    "name": "柏駅前通り店",
    "latitude": 35.86104472275939,
    "longitude": 139.97264587022102,
    "address": "千葉県柏市柏１－５－２１"
  },
  {
    "id": 348336824,
    "key": "12035",
    "name": "１６号柏店",
    "latitude": 35.88231463156425,
    "longitude": 139.965482000188,
    "address": "千葉県柏市十余二２７６－３７"
  },
  {
    "id": 348336826,
    "key": "12037",
    "name": "南柏店",
    "latitude": 35.84728659809322,
    "longitude": 139.9538099746971,
    "address": "千葉県柏市南柏２－９－１５"
  },
  {
    "id": 348336827,
    "key": "12038",
    "name": "四街道店",
    "latitude": 35.66299358336503,
    "longitude": 140.1648007004197,
    "address": "千葉県四街道市四街道１－２－３"
  },
  {
    "id": 348336831,
    "key": "12042",
    "name": "５１号若松町店",
    "latitude": 35.6351286609924,
    "longitude": 140.1649779261852,
    "address": "千葉県千葉市若葉区若松町２１２５－１"
  },
  {
    "id": 348336832,
    "key": "12043",
    "name": "幕張テクノガーデン店",
    "latitude": 35.65083859061233,
    "longitude": 140.04235793677165,
    "address": "千葉県千葉市美浜区中瀬１－３"
  },
  {
    "id": 348336835,
    "key": "12046",
    "name": "イオン稲毛店",
    "latitude": 35.6367527120364,
    "longitude": 140.09537179940392,
    "address": "千葉県千葉市稲毛区小仲台１－４－２０イオンＧＦ"
  },
  {
    "id": 348336836,
    "key": "12047",
    "name": "新浦安駅前店",
    "latitude": 35.64941471933094,
    "longitude": 139.9130447790526,
    "address": "千葉県浦安市入船１－５－１"
  },
  {
    "id": 348336839,
    "key": "12050",
    "name": "１６号沼南店",
    "latitude": 35.84040872795581,
    "longitude": 140.00398099563714,
    "address": "千葉県柏市大津ケ丘１－５７－３"
  },
  {
    "id": 348336840,
    "key": "12051",
    "name": "南流山店",
    "latitude": 35.840110584787645,
    "longitude": 139.90684981107054,
    "address": "千葉県流山市鰭ケ崎１１－６"
  },
  {
    "id": 348336841,
    "key": "12052",
    "name": "佐原店",
    "latitude": 35.899412646692056,
    "longitude": 140.49407680602494,
    "address": "千葉県香取市北２－１４－３"
  },
  {
    "id": 348336845,
    "key": "12056",
    "name": "平成通り市原店",
    "latitude": 35.51641471799508,
    "longitude": 140.1016858407539,
    "address": "千葉県市原市五井東３－４８－４"
  },
  {
    "id": 348336846,
    "key": "12057",
    "name": "薬円台店",
    "latitude": 35.70935362672667,
    "longitude": 140.04036573724346,
    "address": "千葉県船橋市薬円台５－２０－１１"
  },
  {
    "id": 348336847,
    "key": "12058",
    "name": "我孫子駅前店",
    "latitude": 35.87210176718969,
    "longitude": 140.0121717854371,
    "address": "千葉県我孫子市本町２－２－７"
  },
  {
    "id": 348336848,
    "key": "12059",
    "name": "千葉東寺山店",
    "latitude": 35.62763263120086,
    "longitude": 140.12651370225495,
    "address": "千葉県千葉市中央区東千葉３－１４－２０"
  },
  {
    "id": 348336851,
    "key": "12062",
    "name": "イオンモール富津店",
    "latitude": 35.3300268263766,
    "longitude": 139.84600486951308,
    "address": "千葉県富津市青木１－５－１"
  },
  {
    "id": 348336853,
    "key": "12064",
    "name": "千葉都町店",
    "latitude": 35.61059363935652,
    "longitude": 140.14447870672797,
    "address": "千葉県千葉市中央区都町２－３３－１０"
  },
  {
    "id": 348336854,
    "key": "12065",
    "name": "イオン鎌取店",
    "latitude": 35.561790842683784,
    "longitude": 140.17768065299896,
    "address": "千葉県千葉市緑区おゆみ野３－１６ゆみーる鎌取店内"
  },
  {
    "id": 348336855,
    "key": "12066",
    "name": "五香店",
    "latitude": 35.79527259798029,
    "longitude": 139.96930299716635,
    "address": "千葉県松戸市五香１－１１－１２"
  },
  {
    "id": 348336857,
    "key": "12068",
    "name": "成田ニュータウン店",
    "latitude": 35.76833261386145,
    "longitude": 140.29913366747238,
    "address": "千葉県成田市飯田町字西向野１４３－７"
  },
  {
    "id": 348336858,
    "key": "12069",
    "name": "鴨川店",
    "latitude": 35.10913387578257,
    "longitude": 140.10196175217368,
    "address": "千葉県鴨川市横渚１１０１－２"
  },
  {
    "id": 348336863,
    "key": "12074",
    "name": "成田空港第２ターミナル店",
    "latitude": 35.77408661940873,
    "longitude": 140.38841172509396,
    "address": "千葉県成田市古込字古込１－１成田空港第２旅客ターミナル"
  },
  {
    "id": 348336865,
    "key": "12076",
    "name": "３５６印西店",
    "latitude": 35.83377165825782,
    "longitude": 140.14619670787877,
    "address": "千葉県印西市大森２５３１－１"
  },
  {
    "id": 348336884,
    "key": "12514",
    "name": "５１号酒々井店",
    "latitude": 35.73345662712424,
    "longitude": 140.27195877784206,
    "address": "千葉県印旛郡酒々井町酒々井８８９－１６"
  },
  {
    "id": 348336885,
    "key": "12515",
    "name": "四街道大日店",
    "latitude": 35.6727007619132,
    "longitude": 140.16240689776714,
    "address": "千葉県四街道市大日３１９－１"
  },
  {
    "id": 348336886,
    "key": "12516",
    "name": "市川コルトンプラザ店",
    "latitude": 35.71709265919501,
    "longitude": 139.93359891661285,
    "address": "千葉県市川市鬼高１－１－１"
  },
  {
    "id": 348336887,
    "key": "12517",
    "name": "野田みずきいなげや店",
    "latitude": 35.923464776226936,
    "longitude": 139.8855698925276,
    "address": "千葉県野田市みずき２－１２"
  },
  {
    "id": 348336888,
    "key": "12518",
    "name": "２９６富里店",
    "latitude": 35.73785064474633,
    "longitude": 140.31532965716232,
    "address": "千葉県富里市七栄１３０－２５"
  },
  {
    "id": 348336894,
    "key": "12524",
    "name": "木更津マックスバリュー店",
    "latitude": 35.37649673302359,
    "longitude": 139.94408585322742,
    "address": "千葉県木更津市太田４－１８"
  },
  {
    "id": 348336899,
    "key": "12529",
    "name": "北国分店",
    "latitude": 35.76433258725394,
    "longitude": 139.91174580341493,
    "address": "千葉県市川市堀之内３－３０－１８"
  },
  {
    "id": 348336900,
    "key": "12530",
    "name": "北松戸店",
    "latitude": 35.800233821738985,
    "longitude": 139.91175684708955,
    "address": "千葉県松戸市上本郷８８９－３"
  },
  {
    "id": 348336902,
    "key": "12532",
    "name": "４０９八街店",
    "latitude": 35.68593662972211,
    "longitude": 140.31087465250343,
    "address": "千葉県八街市文違字文違野３０１－３４３３"
  },
  {
    "id": 348336904,
    "key": "12534",
    "name": "京成大久保店",
    "latitude": 35.686417807114054,
    "longitude": 140.0482687749684,
    "address": "千葉県習志野市大久保１－２４－１"
  },
  {
    "id": 348336908,
    "key": "12538",
    "name": "２９６八千代パルル店",
    "latitude": 35.72387582485378,
    "longitude": 140.08968986051323,
    "address": "千葉県八千代市大和田新田４１１"
  },
  {
    "id": 348336919,
    "key": "12549",
    "name": "幕張イトーヨーカドー店",
    "latitude": 35.65596464162351,
    "longitude": 140.0511978148158,
    "address": "千葉県千葉市花見川区幕張町４－４１７－２５"
  },
  {
    "id": 348336922,
    "key": "12552",
    "name": "柏インター店",
    "latitude": 35.91032067645653,
    "longitude": 139.93599280764866,
    "address": "千葉県柏市大青田７４１－１"
  },
  {
    "id": 348336923,
    "key": "12553",
    "name": "下総中山駅前店",
    "latitude": 35.71483261885463,
    "longitude": 139.94330096305833,
    "address": "千葉県船橋市本中山２－１６－１"
  },
  {
    "id": 348336926,
    "key": "12556",
    "name": "イオン八街店",
    "latitude": 35.681241667214344,
    "longitude": 140.31331269368866,
    "address": "千葉県八街市文違字文違野３０１－３－６"
  },
  {
    "id": 348336927,
    "key": "12557",
    "name": "館山おどや店",
    "latitude": 34.99123679562684,
    "longitude": 139.87328281496065,
    "address": "千葉県館山市北条８０６－５"
  },
  {
    "id": 348336933,
    "key": "12563",
    "name": "おゆみ野店",
    "latitude": 35.55171066509176,
    "longitude": 140.17038167589638,
    "address": "千葉県千葉市緑区おゆみ野中央３－２３－３"
  },
  {
    "id": 348336935,
    "key": "12565",
    "name": "上総牛久店",
    "latitude": 35.400375812459664,
    "longitude": 140.14457771135054,
    "address": "千葉県市原市牛久１０４８－２"
  },
  {
    "id": 348336936,
    "key": "12566",
    "name": "姉崎店",
    "latitude": 35.46549279273563,
    "longitude": 140.04497267235,
    "address": "千葉県市原市迎田字中田５１－３"
  },
  {
    "id": 348336937,
    "key": "12567",
    "name": "１２６横芝店",
    "latitude": 35.66038753806724,
    "longitude": 140.48409664908897,
    "address": "千葉県山武郡横芝光町横芝８０９－１"
  },
  {
    "id": 348336941,
    "key": "12571",
    "name": "イオン市川妙典店",
    "latitude": 35.69209362901527,
    "longitude": 139.92705075966958,
    "address": "千葉県市川市妙典４－４－１"
  },
  {
    "id": 348336942,
    "key": "12572",
    "name": "東松戸駅前店",
    "latitude": 35.77001556005835,
    "longitude": 139.9427618298739,
    "address": "千葉県松戸市東松戸３－１－１５"
  },
  {
    "id": 348336943,
    "key": "12573",
    "name": "京成津田沼店",
    "latitude": 35.68287974638482,
    "longitude": 140.02300494612274,
    "address": "千葉県習志野市津田沼４－９－１２"
  },
  {
    "id": 348336945,
    "key": "12575",
    "name": "稲毛マリンピア店",
    "latitude": 35.628560825555375,
    "longitude": 140.0736886864104,
    "address": "千葉県千葉市美浜区高洲３－１３－１"
  },
  {
    "id": 348336947,
    "key": "12577",
    "name": "新松戸駅前店",
    "latitude": 35.82602782606355,
    "longitude": 139.92081197516893,
    "address": "千葉県松戸市新松戸１－４８２森谷ビル"
  },
  {
    "id": 348336948,
    "key": "12578",
    "name": "イオン北小金店",
    "latitude": 35.83285068156949,
    "longitude": 139.93160800313615,
    "address": "千葉県松戸市小金１番地"
  },
  {
    "id": 348336951,
    "key": "12581",
    "name": "東深井店",
    "latitude": 35.91046370546604,
    "longitude": 139.90475101363768,
    "address": "千葉県流山市東深井２６２－１"
  },
  {
    "id": 348336954,
    "key": "12584",
    "name": "船橋飯山満店",
    "latitude": 35.71455480933357,
    "longitude": 140.01318893966027,
    "address": "千葉県船橋市飯山満町１－２６１"
  },
  {
    "id": 348336959,
    "key": "12589",
    "name": "千葉寺リブレ京成店",
    "latitude": 35.58991063013965,
    "longitude": 140.13223168833113,
    "address": "千葉県千葉市中央区千葉寺町９１７"
  },
  {
    "id": 348336962,
    "key": "12592",
    "name": "妙典駅店",
    "latitude": 35.69149475542353,
    "longitude": 139.9251128925938,
    "address": "千葉県市川市富浜１－１４－１"
  },
  {
    "id": 348336963,
    "key": "12593",
    "name": "高柳店",
    "latitude": 35.812288689946485,
    "longitude": 140.00872090539818,
    "address": "千葉県柏市高柳４７１－１"
  },
  {
    "id": 348336964,
    "key": "12594",
    "name": "浦安富士見店",
    "latitude": 35.65183665663409,
    "longitude": 139.8918659211903,
    "address": "千葉県浦安市富士見１－６－２２"
  },
  {
    "id": 348336966,
    "key": "12596",
    "name": "１６号袖ケ浦店",
    "latitude": 35.42995962838896,
    "longitude": 139.96476669941484,
    "address": "千葉県袖ケ浦市福王台２－１２－１８"
  },
  {
    "id": 348336967,
    "key": "12597",
    "name": "１６号島田台店",
    "latitude": 35.76833856875844,
    "longitude": 140.09872478763057,
    "address": "千葉県八千代市島田台８８２－１"
  },
  {
    "id": 348336969,
    "key": "12599",
    "name": "都賀駅前店",
    "latitude": 35.63546680818498,
    "longitude": 140.14919869022884,
    "address": "千葉県千葉市若葉区都賀３－２－５"
  },
  {
    "id": 348336972,
    "key": "12602",
    "name": "新柏ヨークフーズ店",
    "latitude": 35.842803653381374,
    "longitude": 139.98035984743285,
    "address": "千葉県柏市名戸ケ谷８８８－１"
  },
  {
    "id": 348336975,
    "key": "12605",
    "name": "イオン千葉ニュータウン店",
    "latitude": 35.80245265428132,
    "longitude": 140.1143829044241,
    "address": "千葉県印西市中央北３－１－１"
  },
  {
    "id": 348336977,
    "key": "12607",
    "name": "長沼ワンズモール店",
    "latitude": 35.65660777167092,
    "longitude": 140.11846570967677,
    "address": "千葉県千葉市稲毛区長沼町３３０－５０"
  },
  {
    "id": 348336978,
    "key": "12608",
    "name": "市川ショップス店",
    "latitude": 35.7094005728489,
    "longitude": 139.937456955972,
    "address": "千葉県市川市鬼高３－２８－１６"
  },
  {
    "id": 348336979,
    "key": "12609",
    "name": "新習志野ミスターマックス店",
    "latitude": 35.666215781795046,
    "longitude": 140.01252595170033,
    "address": "千葉県習志野市茜浜２－１９－２２"
  },
  {
    "id": 348336980,
    "key": "12610",
    "name": "国分寺台せんどう店",
    "latitude": 35.50299574040451,
    "longitude": 140.11476166533717,
    "address": "千葉県市原市国分寺中央６－１０－２"
  },
  {
    "id": 348336981,
    "key": "12611",
    "name": "１２６旭店",
    "latitude": 35.723547747505535,
    "longitude": 140.63904379523467,
    "address": "千葉県旭市ニ３１６８－１"
  },
  {
    "id": 348336982,
    "key": "12612",
    "name": "花見川店",
    "latitude": 35.68838370473348,
    "longitude": 140.08974768458773,
    "address": "千葉県千葉市花見川区作新台１－１－１"
  },
  {
    "id": 348336987,
    "key": "12617",
    "name": "大多喜オリブ店",
    "latitude": 35.28839181325186,
    "longitude": 140.25361273401526,
    "address": "千葉県夷隅郡大多喜町船子８６１"
  },
  {
    "id": 348336988,
    "key": "12618",
    "name": "八柱イトーヨーカドー店",
    "latitude": 35.79089562194959,
    "longitude": 139.93953875637087,
    "address": "千葉県松戸市日暮１－１５"
  },
  {
    "id": 348336991,
    "key": "12621",
    "name": "松戸高塚マミーマート店",
    "latitude": 35.74810660519871,
    "longitude": 139.94155781987018,
    "address": "千葉県松戸市高塚新田１６０"
  },
  {
    "id": 348336995,
    "key": "12625",
    "name": "北松戸ベルクス店",
    "latitude": 35.79968978384796,
    "longitude": 139.90394697680017,
    "address": "千葉県松戸市栄町２－７６－２"
  },
  {
    "id": 348337001,
    "key": "12631",
    "name": "イオンモール成田店",
    "latitude": 35.79568254033924,
    "longitude": 140.3175126608693,
    "address": "千葉県成田市ウイング土屋２４"
  },
  {
    "id": 348337003,
    "key": "12633",
    "name": "南行徳駅前店",
    "latitude": 35.672525681520035,
    "longitude": 139.90083182763325,
    "address": "千葉県市川市相之川４－１４－５"
  },
  {
    "id": 348337006,
    "key": "12636",
    "name": "南柏駅前店",
    "latitude": 35.84402280625783,
    "longitude": 139.95406980772583,
    "address": "千葉県柏市南柏中央３－２"
  },
  {
    "id": 348337008,
    "key": "12638",
    "name": "北方町店",
    "latitude": 35.73761257305916,
    "longitude": 139.95427494400406,
    "address": "千葉県市川市北方町４－１４６３－３"
  },
  {
    "id": 348337009,
    "key": "12639",
    "name": "浦安東野ヤオコー店",
    "latitude": 35.64769078194694,
    "longitude": 139.8936559363327,
    "address": "千葉県浦安市東野２－２９４－２"
  },
  {
    "id": 348337010,
    "key": "12640",
    "name": "千葉ニュータウンジョイフル本田店",
    "latitude": 35.80684574303325,
    "longitude": 140.15436378322693,
    "address": "千葉県印西市牧の原２－１"
  },
  {
    "id": 348337011,
    "key": "12641",
    "name": "柏髙島屋ステーションモール店",
    "latitude": 35.862395618244264,
    "longitude": 139.97029990326544,
    "address": "千葉県柏市末広町１－１"
  },
  {
    "id": 348337012,
    "key": "12642",
    "name": "成田空港第１ターミナル店",
    "latitude": 35.76415956432076,
    "longitude": 140.38421387548263,
    "address": "千葉県成田市三里塚御料牧場１－１成田空港第一旅客ターミナル中央ビル４Ｆ"
  },
  {
    "id": 348337013,
    "key": "12643",
    "name": "おゆみ野ミスターマックス店",
    "latitude": 35.55540083757411,
    "longitude": 140.16121285642518,
    "address": "千葉県千葉市緑区おゆみ野中央２－３－１"
  },
  {
    "id": 348337015,
    "key": "12645",
    "name": "ユーカリプラザ店",
    "latitude": 35.722565542243146,
    "longitude": 140.15600291323577,
    "address": "千葉県佐倉市ユーカリが丘４－１ユーカリプラザ内２Ｆ"
  },
  {
    "id": 348337020,
    "key": "12650",
    "name": "イオンタウン野田七光台店",
    "latitude": 35.98176369936133,
    "longitude": 139.8528519634155,
    "address": "千葉県野田市七光台４－２"
  },
  {
    "id": 348337022,
    "key": "12652",
    "name": "イオンモール八千代緑が丘店",
    "latitude": 35.72828875678831,
    "longitude": 140.07262473730165,
    "address": "千葉県八千代市緑が丘２－１－３"
  },
  {
    "id": 348337023,
    "key": "12653",
    "name": "蘇我ホームズ店",
    "latitude": 35.58530175368992,
    "longitude": 140.12380980809203,
    "address": "千葉県千葉市中央区川崎町５５－３"
  },
  {
    "id": 348337024,
    "key": "12654",
    "name": "成田ユアエルム店",
    "latitude": 35.759944589883126,
    "longitude": 140.29628175160502,
    "address": "千葉県成田市公津の杜４－５"
  },
  {
    "id": 348337025,
    "key": "12655",
    "name": "大網街道赤井店",
    "latitude": 35.57571264738221,
    "longitude": 140.16858891373,
    "address": "千葉県千葉市中央区赤井町７４１"
  },
  {
    "id": 348337026,
    "key": "12656",
    "name": "木下街道馬込沢店",
    "latitude": 35.74180459528025,
    "longitude": 139.9953018511317,
    "address": "千葉県船橋市馬込町８０１－７"
  },
  {
    "id": 348337027,
    "key": "12657",
    "name": "１２６八日市場店",
    "latitude": 35.70006770037027,
    "longitude": 140.55126186895285,
    "address": "千葉県匝瑳市八日市場イ８０－１"
  },
  {
    "id": 348337028,
    "key": "12658",
    "name": "イオンモール柏店",
    "latitude": 35.85210265945785,
    "longitude": 139.96178382364596,
    "address": "千葉県柏市豊町２－５－２５"
  },
  {
    "id": 348337029,
    "key": "12659",
    "name": "イオンモール千葉ニュータウン店",
    "latitude": 35.801951570155076,
    "longitude": 140.11329690575556,
    "address": "千葉県印西市中央北３－２"
  },
  {
    "id": 348337030,
    "key": "12660",
    "name": "成田空港第１中央ゲートエリア店",
    "latitude": 35.76415955220202,
    "longitude": 140.38376891304108,
    "address": "千葉県成田市三里塚御料牧場１－１成田空港第１旅客ターミナル中央ビル新館３"
  },
  {
    "id": 348337031,
    "key": "12661",
    "name": "柏の葉キャンパス駅前店",
    "latitude": 35.894112678226165,
    "longitude": 139.9527039933237,
    "address": "千葉県柏市若柴１７４"
  },
  {
    "id": 348337032,
    "key": "12662",
    "name": "新鎌ヶ谷駅前店",
    "latitude": 35.779902651848026,
    "longitude": 139.9998279766497,
    "address": "千葉県鎌ケ谷市新鎌ヶ谷２丁目９－１"
  },
  {
    "id": 348337033,
    "key": "12663",
    "name": "イオンタウン館山店",
    "latitude": 35.006732829883035,
    "longitude": 139.8621556473566,
    "address": "千葉県館山市八幡５４５－１"
  },
  {
    "id": 348337034,
    "key": "12664",
    "name": "１２８岬ショッピングガーデン店",
    "latitude": 35.28929574587161,
    "longitude": 140.39331568912414,
    "address": "千葉県いすみ市岬町井沢１８５８－１"
  },
  {
    "id": 348337035,
    "key": "12665",
    "name": "ユニモちはら台店",
    "latitude": 35.52790670211791,
    "longitude": 140.17168669239896,
    "address": "千葉県市原市ちはら台西３－４"
  },
  {
    "id": 348337037,
    "key": "12667",
    "name": "２９６志津店",
    "latitude": 35.7177605716013,
    "longitude": 140.1371197060783,
    "address": "千葉県佐倉市井野１４７３－５"
  },
  {
    "id": 348337038,
    "key": "12668",
    "name": "パサール幕張上り店",
    "latitude": 35.669685672100634,
    "longitude": 140.05387869960407,
    "address": "千葉県千葉市花見川区幕張町２－２６２１"
  },
  {
    "id": 348337041,
    "key": "12671",
    "name": "西白井店",
    "latitude": 35.7804927677556,
    "longitude": 140.027168967698,
    "address": "千葉県鎌ケ谷市初富８５５‐５"
  },
  {
    "id": 348337042,
    "key": "12672",
    "name": "市原青柳店",
    "latitude": 35.50797182129558,
    "longitude": 140.0620178629605,
    "address": "千葉県市原市青柳北３－１－１"
  },
  {
    "id": 348337043,
    "key": "12673",
    "name": "北習志野駅店",
    "latitude": 35.72172061514299,
    "longitude": 140.0420617588787,
    "address": "千葉県船橋市習志野台２－１－６"
  },
  {
    "id": 348337044,
    "key": "12674",
    "name": "４６４印西牧の原店",
    "latitude": 35.80521476328245,
    "longitude": 140.16268786722335,
    "address": "千葉県印西市牧の原１－３"
  },
  {
    "id": 348337045,
    "key": "12675",
    "name": "１４号稲毛店",
    "latitude": 35.6375565912391,
    "longitude": 140.07774575751026,
    "address": "千葉県千葉市美浜区稲毛海岸４－１－１２"
  },
  {
    "id": 348337046,
    "key": "12676",
    "name": "佐倉寺崎店",
    "latitude": 35.71299268259743,
    "longitude": 140.21586185257482,
    "address": "千葉県佐倉市寺崎北４－１１－５"
  },
  {
    "id": 348337047,
    "key": "12677",
    "name": "柏酒井根店",
    "latitude": 35.8234377004512,
    "longitude": 139.9671339806934,
    "address": "千葉県柏市酒井根２－２－８"
  },
  {
    "id": 348337048,
    "key": "12678",
    "name": "１２６成東店",
    "latitude": 35.600692707590525,
    "longitude": 140.40778078842158,
    "address": "千葉県山武市成東４９４－１"
  },
  {
    "id": 348337049,
    "key": "12679",
    "name": "平成通り長浦店",
    "latitude": 35.44299670931426,
    "longitude": 140.00372983253516,
    "address": "千葉県袖ケ浦市長浦駅前４－１１－９"
  },
  {
    "id": 348337050,
    "key": "12680",
    "name": "１６号柏桜台店",
    "latitude": 35.8610605842955,
    "longitude": 139.98403795779416,
    "address": "千葉県柏市柏９１２－１"
  },
  {
    "id": 348337051,
    "key": "12681",
    "name": "君津中富店",
    "latitude": 35.33355266564775,
    "longitude": 139.88196974757832,
    "address": "千葉県君津市中富９６５－１"
  },
  {
    "id": 348337052,
    "key": "12682",
    "name": "１６号八千代村上店",
    "latitude": 35.722851656840135,
    "longitude": 140.1162257115898,
    "address": "千葉県八千代市村上南３－１－１"
  },
  {
    "id": 348337053,
    "key": "12683",
    "name": "船橋日大前店",
    "latitude": 35.72603755466748,
    "longitude": 140.05987396402114,
    "address": "千葉県船橋市坪井東１－１－２０"
  },
  {
    "id": 348337054,
    "key": "12684",
    "name": "イオンモール船橋店",
    "latitude": 35.71173058016567,
    "longitude": 139.97844588697532,
    "address": "千葉県船橋市山手１－１－８"
  },
  {
    "id": 348337055,
    "key": "12685",
    "name": "流山おおたかの森店",
    "latitude": 35.86916978543462,
    "longitude": 139.92658278535544,
    "address": "千葉県流山市おおたかの森南１－６－４"
  },
  {
    "id": 348337056,
    "key": "12686",
    "name": "４６４鎌ヶ谷店",
    "latitude": 35.77373281489235,
    "longitude": 140.00072092933317,
    "address": "千葉県鎌ケ谷市中央１－８－１３"
  },
  {
    "id": 348337057,
    "key": "12687",
    "name": "木更津金田店",
    "latitude": 35.431627782870315,
    "longitude": 139.93387868698332,
    "address": "千葉県木更津市中島１７２－１"
  },
  {
    "id": 348337058,
    "key": "12688",
    "name": "３５６小見川店",
    "latitude": 35.85963058644345,
    "longitude": 140.60032671178095,
    "address": "千葉県香取市八日市場字小船津９０３－１"
  },
  {
    "id": 348337059,
    "key": "12689",
    "name": "４０８成田美郷台店",
    "latitude": 35.795050539823954,
    "longitude": 140.31284169262554,
    "address": "千葉県成田市美郷台１－１９－１３"
  },
  {
    "id": 348337060,
    "key": "12690",
    "name": "松戸駅前店",
    "latitude": 35.78379676945821,
    "longitude": 139.90088093713067,
    "address": "千葉県松戸市松戸１２３０－１ピアザ松戸ビル３階"
  },
  {
    "id": 348337061,
    "key": "12691",
    "name": "ららぽーとＴＯＫＹＯーＢＡＹ西館店",
    "latitude": 35.68652674725377,
    "longitude": 139.98873992304542,
    "address": "千葉県船橋市浜町２－１－１"
  },
  {
    "id": 348337062,
    "key": "12692",
    "name": "１２６東金店",
    "latitude": 35.55344765455716,
    "longitude": 140.3643138681349,
    "address": "千葉県東金市南上宿字１０－１３"
  },
  {
    "id": 348337063,
    "key": "12694",
    "name": "東習志野店",
    "latitude": 35.69742267780672,
    "longitude": 140.0687457623315,
    "address": "千葉県習志野市東習志野７－１－１"
  },
  {
    "id": 348337064,
    "key": "12695",
    "name": "イオンモール幕張新都心店",
    "latitude": 35.65298782412261,
    "longitude": 140.0331747382256,
    "address": "千葉県千葉市美浜区豊砂１－１イオンモール幕張新都心グランド"
  },
  {
    "id": 348337065,
    "key": "12696",
    "name": "セブンパークアリオ柏店",
    "latitude": 35.83353975084789,
    "longitude": 140.01319993770812,
    "address": "千葉県柏市大島田１－６－１"
  },
  {
    "id": 348337066,
    "key": "12697",
    "name": "ペリエ千葉店",
    "latitude": 35.613204762476464,
    "longitude": 140.11458168300493,
    "address": "千葉県千葉市中央区新千葉１－１－１"
  },
  {
    "id": 348337067,
    "key": "12698",
    "name": "船橋イトーヨーカドー店",
    "latitude": 35.70324669442283,
    "longitude": 139.9843907264512,
    "address": "千葉県船橋市本町７－６－１"
  },
  {
    "id": 348337068,
    "key": "12699",
    "name": "テラスモール松戸店",
    "latitude": 35.81812462010326,
    "longitude": 139.93372092228597,
    "address": "千葉県松戸市八ケ崎２－８－１"
  },